timestamp,GLOBAL_POSITION_INT.time_boot_ms,GLOBAL_POSITION_INT.lat,GLOBAL_POSITION_INT.lon,GLOBAL_POSITION_INT.alt,GLOBAL_POSITION_INT.relative_alt,GLOBAL_POSITION_INT.vx,GLOBAL_POSITION_INT.vy,GLOBAL_POSITION_INT.vz,GLOBAL_POSITION_INT.hdg,ATTITUDE.time_boot_ms,ATTITUDE.roll,ATTITUDE.pitch,ATTITUDE.yaw,ATTITUDE.rollspeed,ATTITUDE.pitchspeed,ATTITUDE.yawspeed,VFR_HUD.airspeed,VFR_HUD.groundspeed,VFR_HUD.heading,VFR_HUD.throttle,VFR_HUD.alt,VFR_HUD.climb
1429523352.64899993,20328,476028003,85340985,413078,945,13,8,15,35197,20357,0.0908562168479,-0.0206128451973,-0.14010989666,-0.00389757426456,0.00129306293093,-0.000239630229771,0.0,0.158478662372,351,0,312.906585693,-0.146235182881
1429523352.93799996,,,,,,,,,,20867,0.0881421864033,-0.0167206656188,-0.140844494104,-0.000426039099693,-0.000243060523644,-0.00163991190493,0.0,0.0395081788301,351,0,312.220306396,-0.185704216361
1429523353.48099995,21338,476027994,85340992,412926,794,2,12,17,35200,,,,,,,,,,,,,
1429523353.49499989,,,,,,,,,,21377,0.090630300343,-0.0150891300291,-0.139454677701,-0.000387522683013,-0.000561398104765,-0.000592672266066,0.0,0.123931914568,352,0,312.563446045,-0.182509467006
1429523353.94599986,,,,,,,,,,21887,0.0906724259257,-0.0156410541385,-0.139418825507,-0.000207947567105,0.000821817899123,-0.00111397542059,,,,,,
1429523353.96099997,,,,,,,,,,,,,,,,,0.0,0.134443894029,352,0,312.820800781,-0.172066152096
1429523354.48599982,22348,476027994,85341004,412918,785,3,14,16,35201,22387,0.0909293889999,-0.016407744959,-0.139297157526,0.000678643991705,-0.000595185556449,-0.00128541234881,0.0,0.159953534603,352,0,312.306091309,-0.165446728468
1429523354.99899983,,,,,,,,,,22897,0.0903892368078,-0.0132924849167,-0.13918800652,-0.00230460800231,0.00210643024184,-0.00111705064774,0.0,0.180033534765,352,0,311.791412354,-0.175450488925
1429523355.50399995,23368,476027971,85341004,412886,753,-8,9,18,35195,23397,0.0826785266399,-0.0149036394432,-0.140365585685,0.0128045612946,-0.00471059558913,0.00202258862555,0.0,0.134073898196,351,0,311.877197266,-0.189156547189
1429523355.92299986,,,,,,,,,,23897,0.0917189791799,-0.0142102343962,-0.140437081456,0.021526766941,0.0116646969691,-0.00565447751433,,,,,,
1429523356.05900002,,,,,,,,,,,,,,,,,0.0,0.122085504234,351,0,312.048736572,-0.182818561792
1429523356.42299986,24382,476027960,85341004,412947,815,-11,6,17,35193,,,,,,,,,,,,,
1429523356.45199990,,,,,,,,,,24407,0.0865255743265,-0.0135771436617,-0.140710130334,0.00196375278756,-0.00996251311153,0.000451263040304,0.0,0.129384994507,351,0,312.306091309,-0.172061979771
1429523356.95799994,,,,,,,,,,24917,0.085978217423,-0.0120700122789,-0.140868708491,-0.00239576981403,4.70303930342e-05,-0.000950566492975,0.0,0.177668407559,351,0,312.391876221,-0.160015568137
1429523357.39699984,25382,476027939,85341004,413137,1005,-18,4,11,35191,,,,,,,,,,,,,
1429523357.72399998,,,,,,,,,,25427,0.0856689363718,-0.0120020387694,-0.1411652565,0.00161329901312,-0.00520062400028,-0.000425919890404,0.0,0.189705640078,351,0,312.992401123,-0.102022111416
1429523357.98899984,,,,,,,,,,25927,0.0855767428875,-0.0127729512751,-0.141354814172,-0.000472137297038,-0.0010606610449,0.000101682730019,0.0,0.186761572957,351,0,312.048736572,-0.0660212263465
1429523358.51699996,26393,476027934,85341005,413397,1264,-14,2,3,35190,26427,0.0869643166661,-0.0143671212718,-0.141268178821,0.00603613723069,0.00022311473731,0.000461213290691,0.0,0.151233583689,351,0,312.391876221,-0.0340487584472
1429523359.02199984,,,,,,,,,,26937,0.0854711532593,-0.0154419811442,-0.141646191478,-0.00291092414409,-0.000213331542909,-0.00162848178297,0.0,0.117494888604,351,0,312.563446045,-0.0481215268373
1429523359.50899982,27402,476027928,85340991,413350,1217,-12,-2,7,35187,27447,0.0848399177194,-0.0155487572774,-0.141819566488,-0.00238538393751,0.00328797940165,0.000115560367703,,,,,,
1429523359.59299994,,,,,,,,,,,,,,,,,0.0,0.132281526923,351,0,312.134521484,-0.0737051516771
1429523360.04199982,,,,,,,,,,27947,0.0862138792872,-0.0157502945513,-0.141956284642,0.00133788213134,0.00256749032997,-0.000578763894737,,,,,,
1429523360.05799985,,,,,,,,,,,,,,,,,0.0,0.117827966809,351,0,313.335540771,-0.0359071791172
1429523360.49300003,28398,476027944,85340975,413421,1289,2,-8,6,35181,,,,,,,,,,,,,
1429523360.49399996,,,,,,,,,,28457,0.085392460227,-0.020137751475,-0.142956480384,-0.00727616343647,-0.000139145122375,-0.0021340129897,,,,,,
1429523360.60599995,,,,,,,,,,,,,,,,,0.0,0.0946489572525,351,0,312.735015869,-0.0591729022563
1429523361.09599996,,,,,,,,,,28957,0.0838946029544,-0.0202793367207,-0.143231451511,-0.00834770686924,0.00440106354654,-0.00161401182413,0.0,0.135290503502,351,0,312.906585693,-0.0601113140583
1429523361.52799988,29408,476027943,85340955,413320,1187,2,-13,9,35178,,,,,,,,,,,,,
1429523361.54299998,,,,,,,,,,29467,0.0847489759326,-0.0194606315345,-0.143339648843,0.00494567677379,-0.00130981230177,0.000476065091789,0.0,0.136053428054,351,0,313.078186035,-0.0970332473516
1429523362.00199986,,,,,,,,,,29967,0.0849660634995,-0.0168225523084,-0.143041744828,-0.00285582919605,0.00163398799486,-0.000403555110097,0.0,0.121885418892,351,0,311.877197266,-0.10750746727
1429523362.44199991,30412,476027939,85340947,413298,1165,-1,-11,10,35179,,,,,,,,,,,,,
1429523362.69700003,,,,,,,,,,30477,0.0847619473934,-0.0178681798279,-0.143379151821,0.00519411731511,-0.000696447095834,-0.00179400108755,0.0,0.117369346321,351,0,312.134521484,-0.103609569371
1429523363.02999997,,,,,,,,,,30987,0.0861022099853,-0.0167041216046,-0.143045157194,-0.00172608904541,-0.00377261498943,-0.00213979091495,,,,,,
1429523363.14800000,,,,,,,,,,,,,,,,,0.0,0.0941156297922,351,0,313.936126709,-0.080076418817
1429523363.61399984,31418,476027936,85340947,413454,1322,-2,-7,5,35181,31497,0.0866371020675,-0.0170786660165,-0.142823457718,-0.00309143401682,-0.00187956297304,-0.000213189050555,0.0,0.0788742825389,351,0,312.048736572,-0.0583228506148
1429523364.07200003,,,,,,,,,,32007,0.0862809196115,-0.0176655929536,-0.142868891358,0.00268502905965,-0.00138743023854,-0.00143108889461,0.0,0.0774265229702,351,0,312.820800781,-0.0472039878368
1429523364.53099990,32433,476027947,85340941,413436,1303,4,-6,6,35181,,,,,,,,,,,,,
1429523364.63499999,,,,,,,,,,32507,0.0870928019285,-0.0186557210982,-0.142911300063,-0.00251969089732,0.000489974860102,-0.000898447819054,,,,,,
1429523364.65199995,,,,,,,,,,,,,,,,,0.0,0.0836315229535,351,0,312.048736572,-0.0700925141573
1429523365.09999990,,,,,,,,,,33017,0.0875391438603,-0.0173553563654,-0.142981767654,-0.000599420338403,0.00107235927135,-2.65575945377e-05,,,,,,
1429523365.11500001,,,,,,,,,,,,,,,,,0.0,0.0674566924572,351,0,312.649230957,-0.0655059218407
1429523365.43400002,33433,476027951,85340937,413518,1386,5,-5,4,35180,,,,,,,,,,,,,
1429523365.59500003,,,,,,,,,,33537,0.087827347219,-0.018468465656,-0.142954826355,-0.000926620909013,-0.0014152379008,0.000155970454216,0.0,0.0818045511842,351,0,311.96295166,-0.0559798404574
1429523366.13699985,,,,,,,,,,34047,0.0869687646627,-0.0191212780774,-0.142712280154,0.00556811504066,0.0003156933235,-0.00332513079047,0.0,0.0896537452936,351,0,311.705627441,-0.054605036974
1429523366.59899998,34442,476027961,85340933,413543,1410,9,-4,3,35184,34547,0.0894001573324,-0.0180061236024,-0.14195227623,0.0203766301274,0.0142746306956,0.00575261283666,0.0,0.11658680439,351,0,312.477661133,-0.0248402897269
1429523367.05200005,,,,,,,,,,35047,0.0941425934434,-0.0156027786434,-0.141439050436,-0.00149006047286,0.00751007208601,0.00103266071528,,,,,,
1429523367.06599998,,,,,,,,,,,,,,,,,0.0,0.102463200688,351,0,312.391876221,0.00252442969941
1429523367.50099993,35438,476027956,85340922,413761,1628,4,-4,-1,35517,,,,,,,,,,,,,
1429523367.66799998,,,,,,,,,,35557,0.0980390906334,-0.0156727712601,-0.0845728516579,-0.0134401805699,0.000130302738398,-0.00411232002079,14.655503273,0.0620204471052,355,0,315.823822021,0.0435613654554
1429523368.09999990,,,,,,,,,,36067,0.101785644889,-0.0211802944541,0.0164316147566,-0.00258333375677,-0.0079997992143,0.00239817705005,16.2028503418,0.163575187325,0,0,312.563446045,0.0744393765926
1429523368.56699991,36448,476027969,85340927,413989,1856,18,7,-6,247,,,,,,,,,,,,,
1429523368.66799998,,,,,,,,,,36577,0.10134626925,-0.0213667303324,0.0358252115548,-0.00154224294238,-0.00270917033777,0.00473449751735,7.71696233749,0.164817035198,2,0,313.507141113,0.0784338563681
1429523369.11500001,,,,,,,,,,37087,0.100800283253,-0.0188482739031,0.036916654557,-0.00139068346471,-0.000348472269252,0.00435058120638,,,,,,
1429523369.21599984,,,,,,,,,,,,,,,,,0.0,0.121285706758,2,0,312.992401123,0.106712609529
1429523369.55999994,37452,476027962,85340922,414283,2150,6,8,-11,203,,,,,,,,,,,,,
1429523369.68700004,,,,,,,,,,37597,0.0993642583489,-0.0184580422938,0.0353161655366,0.0212758779526,-0.00312345777638,0.00216890871525,,,,,,
1429523369.81699991,,,,,,,,,,,,,,,,,0.0,0.100618876517,2,0,311.362518311,0.121259324253
1429523370.15100002,,,,,,,,,,38097,0.103005684912,-0.0206190589815,0.0701759383082,0.0367000289261,-0.00137521850411,0.00334253627807,,,,,,
1429523370.28299999,,,,,,,,,,,,,,,,,0.0,0.183959975839,4,0,312.306091309,0.101105339825
1429523370.75499988,38463,476027970,85340919,414194,2061,10,11,-8,394,38607,0.103817127645,-0.0216966737062,0.0676542967558,0.00478722853586,0.000254159211181,0.00323557201773,0.0,0.171717643738,3,0,312.649230957,0.105445258319
1429523371.23399997,,,,,,,,,,39117,0.100851327181,-0.0212445184588,0.0660418868065,-0.000937227043323,0.00459638424218,0.00417219754308,0.0,0.222350761294,3,0,312.220306396,0.105308502913
1429523371.54900002,39462,476027984,85340931,414287,2154,12,18,-11,373,,,,,,,,,,,,,
1429523371.70400000,,,,,,,,,,39627,0.0986291319132,-0.0195953734219,0.0640283748507,-0.00901399739087,0.000784234842286,0.00510696228594,0.0,0.176677629352,3,0,313.678741455,0.109321773052
1429523372.22099996,,,,,,,,,,40127,0.100193805993,-0.0184548273683,0.0623358301818,-0.00546446023509,0.00291026919149,0.00517649482936,,,,,,
1429523372.37399983,,,,,,,,,,,,,,,,,0.0,0.233296230435,3,0,312.048736572,0.0966445803642
1429523372.78499985,40472,476027977,85340947,414144,2012,3,24,-7,350,40627,0.100819051266,-0.0175780970603,0.0603805892169,-0.00596841005608,-0.0033579361625,0.00489465240389,0.0,0.272537082434,3,0,313.678741455,0.0683897510171
1429523373.28600001,,,,,,,,,,41137,0.100010819733,-0.0166509076953,0.058193333447,0.00707544200122,0.00258580502123,0.00373103842139,0.0,0.242816194892,3,0,312.306091309,0.0546296723187
1429523373.46899986,41478,476027978,85340935,414018,1885,1,18,-4,319,,,,,,,,,,,,,
1429523373.72399998,,,,,,,,,,41637,0.0976893678308,-0.0165933314711,0.0554472915828,0.00175506272353,0.000127144274302,0.00448085926473,0.0,0.160322025418,3,0,312.391876221,0.0317062139511
1429523374.17100000,,,,,,,,,,42157,0.0977053567767,-0.0154963191599,0.0521145313978,-0.00576705718413,0.00345502793789,0.00224131625146,0.0,0.150770783424,2,0,313.163970947,0.00874408986419
1429523374.71499991,42488,476027970,85340919,413839,1706,-5,11,0,288,,,,,,,,,,,,,
1429523374.74699998,,,,,,,,,,42657,0.0973652526736,-0.0155312716961,0.0492320582271,0.00486121885478,0.000469399150461,0.00159836839885,,,,,,
1429523374.85200000,,,,,,,,,,,,,,,,,0.0,0.133703559637,2,0,312.477661133,0.00881678890437
1429523375.26999998,,,,,,,,,,43157,0.0963899865746,-0.0174747165293,0.0465062707663,0.00258628278971,-0.0058856359683,0.00270680896938,,,,,,
1429523375.30699992,,,,,,,,,,,,,,,,,0.0,0.1193337515,2,0,312.906585693,0.00464639393613
1429523375.54600000,43492,476027983,85340915,413844,1712,1,9,0,256,,,,,,,,,,,,,
1429523375.78399992,,,,,,,,,,43667,0.0945138707757,-0.0181215610355,0.0435475483537,-0.0274775903672,0.00577952852473,0.00397652760148,0.0,0.0694464445114,2,0,313.249755859,-0.0117870448157
1429523376.23799992,,,,,,,,,,44167,0.0940484628081,-0.0185218825936,0.040541537106,-0.00829182378948,-0.00226839445531,0.00105955451727,,,,,,
1429523376.25399995,,,,,,,,,,,,,,,,,0.0,0.0613905191422,2,0,312.820800781,-0.00661650765687
1429523376.67299986,44503,476027999,85340897,413831,1699,7,4,1,218,,,,,,,,,,,,,
1429523376.70400000,,,,,,,,,,44667,0.0939892455935,-0.0195115078241,0.037466801703,-0.0180812887847,0.00641617318615,0.00425239745528,0.0,0.0833596512675,2,0,312.048736572,-0.027069626376
1429523377.26499987,,,,,,,,,,45177,0.0926247313619,-0.0175175722688,0.0344732627273,-0.0109509443864,0.00103314127773,0.00185175798833,,,,,,
1429523377.47000003,,,,,,,,,,,,,,,,,0.0,0.0363584049046,1,0,313.078186035,-0.0397421717644
1429523377.60599995,45514,476027996,85340890,413688,1555,2,3,5,183,,,,,,,,,,,,,
1429523377.74399996,,,,,,,,,,45687,0.0946007072926,-0.0172347314656,0.0311988610774,-0.0145362531766,-0.00261399149895,0.00172002147883,,,,,,
1429523377.87299991,,,,,,,,,,,,,,,,,0.0,0.0768668353558,1,0,311.705627441,-0.052611798048
1429523378.19099998,,,,,,,,,,46197,0.0954204946756,-0.0174431595951,0.0280554108322,-0.0101624531671,0.00505184102803,0.00282404664904,,,,,,
1429523378.34299994,,,,,,,,,,,,,,,,,0.0,0.0917614176869,1,0,312.820800781,-0.0597232468426
1429523378.53199983,46508,476027992,85340904,413665,1533,-1,9,5,149,,,,,,,,,,,,,
1429523378.82699990,,,,,,,,,,46697,0.0974635183811,-0.0174152534455,0.0248725060374,0.00660269893706,-0.00648554228246,0.00235948432237,0.0,0.117429569364,1,0,312.306091309,-0.0626987218857
1429523379.32399988,,,,,,,,,,47207,0.0941953286529,-0.0174507480115,0.0214641783386,-0.00195963843726,-0.00753710372373,0.00136641599238,0.0,0.112221211195,1,0,312.477661133,-0.071648478508
1429523379.57299995,47522,476027995,85340912,413583,1451,-1,12,7,111,,,,,,,,,,,,,
1429523379.82599998,,,,,,,,,,47717,0.0955889895558,-0.0169655587524,0.0180235616863,0.00224014488049,0.0102638714015,0.00107840914279,,,,,,
1429523380.03600001,,,,,,,,,,,,,,,,,0.0,0.137405455112,1,0,311.619842529,-0.0769209042192
1429523380.27600002,,,,,,,,,,48227,0.096168845892,-0.0161819960922,0.0135519932956,-0.00422344822437,-0.00910699553788,0.00111322849989,,,,,,
1429523380.43099999,,,,,,,,,,,,,,,,,0.0,0.145927801728,0,0,311.877197266,-0.0811238661408
1429523380.54199982,48522,476027993,85340923,413619,1486,-4,15,7,66,,,,,,,,,,,,,
1429523380.84299994,,,,,,,,,,48727,0.0965821668506,-0.016878535971,0.0100262695923,0.00240179197863,0.000813229009509,-4.3754465878e-05,0.0,0.146138742566,0,0,311.619842529,-0.0858360752463
1429523381.34399986,,,,,,,,,,49227,0.0961700677872,-0.0172688439488,0.00624484475702,0.00342520489357,0.000971058150753,0.00141045078635,0.0,0.124000035226,0,0,312.134521484,-0.104045011103
1429523381.63899994,49518,476027997,85340922,413436,1303,-2,12,11,24,,,,,,,,,,,,,
1429523381.77900004,,,,,,,,,,49737,0.0952760651708,-0.0170028842986,0.00283821392804,-0.00531254848465,0.00289331423119,0.00147218909115,0.0,0.118667438626,0,0,312.649230957,-0.119162358344
1429523382.32599998,,,,,,,,,,50237,0.094165943563,-0.0179232545197,-0.000973165326286,0.0114141078666,-0.00168004643638,-0.000388734042645,,,,,,
1429523382.48099995,,,,,,,,,,,,,,,,,0.0,0.0770235359669,359,0,311.877197266,-0.106032460928
1429523382.62599993,50533,476028004,85340914,413508,1376,0,7,10,35981,,,,,,,,,,,,,
1429523382.78499985,,,,,,,,,,50737,0.0948261767626,-0.0183352362365,-0.00442918483168,-0.00131997128483,0.00475193653256,0.00195352360606,,,,,,
1429523382.91299987,,,,,,,,,,,,,,,,,0.0,0.0873229205608,359,0,312.649230957,-0.104372531176
1429523383.37100005,,,,,,,,,,51247,0.0937634855509,-0.0190012715757,-0.0082582924515,-0.00500764138997,0.00489224120975,9.89334657788e-05,0.0,0.0804465562105,359,0,310.847869873,-0.102982081473
1429523383.57799983,51542,476028018,85340915,413555,1422,7,6,10,35940,,,,,,,,,,,,,
1429523383.81900001,,,,,,,,,,51757,0.0938432216644,-0.0192109160125,-0.0128886373714,-0.00240460713394,-0.00280192587525,0.0022429106757,0.0,0.0811629667878,359,0,312.134521484,-0.0954460129142
1429523384.33200002,,,,,,,,,,52257,0.0938909053802,-0.018464282155,-0.0164444502443,-0.00310057145543,-0.00314188096672,0.000747444108129,0.0,0.0643802285194,359,0,311.362518311,-0.0906843319535
1429523384.55999994,52542,476028020,85340910,413684,1551,6,5,8,35894,,,,,,,,,,,,,
1429523384.84800005,,,,,,,,,,52777,0.0954065099359,-0.0172216631472,-0.0192947294563,-0.00114410114475,-0.000860262312926,0.000140782445669,,,,,,
1429523384.97899985,,,,,,,,,,,,,,,,,0.0,0.0918263942003,358,0,311.705627441,-0.0771550759673
1429523385.32399988,,,,,,,,,,53277,0.094983741641,-0.0180134456605,-0.0231984481215,-0.000819193141069,0.00346753234044,0.000742290169001,0.0,0.0818146243691,358,0,312.134521484,-0.0674888640642
1429523385.56399989,53552,476028024,85340914,413890,1757,6,5,6,35854,,,,,,,,,,,,,
1429523385.89299989,,,,,,,,,,53787,0.0948468074203,-0.0191543046385,-0.0269696917385,-0.00625070836395,-0.00251736422069,0.00134750641882,0.0,0.126139074564,358,0,312.048736572,-0.056212965399
1429523386.50199986,,,,,,,,,,54287,0.0951377302408,-0.0188714135438,-0.0307836420834,0.0012634024024,0.000268741569016,-0.00189357809722,,,,,,
1429523386.59599996,,,,,,,,,,,,,,,,,0.0,0.129472017288,358,0,312.391876221,-0.0439216457307
1429523386.63399982,54574,476028040,85340905,414251,2118,11,1,3,35814,,,,,,,,,,,,,
1429523386.79499984,,,,,,,,,,54797,0.094817891717,-0.0184251684695,-0.0342655330896,-0.000316031626426,0.00113989366218,-5.84693625569e-05,,,,,,
1429523386.93299985,,,,,,,,,,,,,,,,,0.0,0.12271323055,358,0,312.134521484,-0.0393945798278
1429523387.38599992,,,,,,,,,,55297,0.0955928787589,-0.0178849622607,-0.0374998375773,-0.000475509092212,-0.00043320399709,-0.000307120382786,0.0,0.124970778823,357,0,311.877197266,-0.035861145705
1429523387.62599993,55588,476028040,85340907,414342,2209,8,3,2,35774,,,,,,,,,,,,,
1429523387.84899998,,,,,,,,,,55807,0.0945826172829,-0.0160482656211,-0.0407672263682,-0.00119301746599,-0.000752216088586,-0.000565011054277,0.0,0.0536905527115,357,0,311.448303223,-0.0294719096273
1429523388.46700001,,,,,,,,,,56317,0.0947430431843,-0.0161595065147,-0.0440609566867,-0.00835428573191,0.00150334532373,-0.00151325110346,0.0,0.0505236722529,357,0,312.134521484,-0.0264009702951
1429523388.60699987,56598,476028042,85340904,414466,2333,7,2,2,35738,,,,,,,,,,,,,
1429523388.91499996,,,,,,,,,,56817,0.0943723767996,-0.0166722424328,-0.0469434782863,-0.0102687655017,-0.00043816852849,-0.001230831258,0.0,0.0696531906724,357,0,311.105194092,-0.0132339652628
1429523389.48699999,,,,,,,,,,57337,0.0947219729424,-0.0145552307367,-0.050188396126,-0.00258283503354,-0.00320528773591,0.00113146100193,,,,,,
1429523389.64899993,,,,,,,,,,,,,,,,,0.0,0.0372538603842,357,0,312.477661133,-0.012210290879
1429523389.67100000,57598,476028030,85340901,414611,2478,-1,1,1,35705,,,,,,,,,,,,,
1429523389.92400002,,,,,,,,,,57847,0.0936886817217,-0.0145408883691,-0.0531078241765,-0.0038273006212,-0.00460815196857,0.00123331788927,0.0,0.0199363101274,356,0,311.877197266,-0.00922908820212
1429523390.43799996,,,,,,,,,,58357,0.0937664434314,-0.01477366779,-0.0560065284371,-0.00190712069161,0.0198099333793,-0.0012725982815,0.0,0.019663432613,356,0,311.619842529,-0.00916277058423
1429523390.69099998,58608,476028039,85340890,414747,2615,3,-1,0,35668,,,,,,,,,,,,,
1429523390.92999983,,,,,,,,,,58857,0.0936376601458,-0.0167234838009,-0.0589496232569,-0.00417863484472,-0.00432992354035,-0.000284752808511,,,,,,
1429523391.06599998,,,,,,,,,,,,,,,,,0.0,0.0522220768034,356,0,311.96295166,0.00173845968675
1429523391.40599990,,,,,,,,,,59367,0.0935113281012,-0.016534216702,-0.0619555227458,0.00610959762707,-0.00328952306882,-0.000870544463396,,,,,,
1429523391.40899992,,,,,,,,,,,,,,,,,0.0,0.0485672652721,356,0,310.590545654,0.00678413780406
1429523391.61800003,59608,476028047,85340883,414859,2726,6,-2,0,35635,,,,,,,,,,,,,
1429523391.99499989,,,,,,,,,,59887,0.0941054746509,-0.0167139526457,-0.0651147738099,-0.00174575555138,0.00193811627105,-0.000238846987486,0.0,0.049452546984,356,0,311.791412354,1.38431041705e-05
1429523392.53900003,,,,,,,,,,60397,0.0945296660066,-0.0164035018533,-0.0675394162536,0.00489848898724,-0.000678510172293,-0.00238084886223,,,,,,
1429523392.55399990,,,,,,,,,,,,,,,,,0.0,0.0220619998872,356,0,312.048736572,-0.00486476579681
1429523393.00300002,60618,476028044,85340873,414979,2846,2,-4,0,35604,60897,0.0944940596819,-0.0178433544934,-0.0704735741019,0.0104706371203,0.00766415102407,-0.00226017832756,0.556105971336,0.0718233734369,355,0,311.619842529,0.00504964124411
1429523393.48199987,,,,,,,,,,61407,0.0947887450457,-0.0193069558591,-0.073073528707,0.00436635408551,-0.00546310516074,-0.00213074777275,1.63977468014,0.126410543919,355,0,310.676330566,0.0148873385042
1429523393.69099998,61628,476028059,85340866,415099,2966,10,-3,-2,35575,,,,,,,,,,,,,
1429523394.04199982,,,,,,,,,,61917,0.099699087441,-0.0179699379951,-0.0751552134752,0.0288129039109,0.0127142937854,-0.00548962131143,,,,,,
1429523394.18899989,,,,,,,,,,,,,,,,,1.43872916698,0.0731857344508,355,0,312.306091309,0.023177087307
1429523394.58899999,,,,,,,,,,62427,0.0967898741364,-0.0159827377647,-0.0747382640839,0.00613039452583,0.00594233768061,0.0018551107496,3.18617320061,0.0244850181043,355,0,311.705627441,0.030452882871
1429523394.72000003,62632,476028053,85340873,415199,3067,4,1,-3,35566,,,,,,,,,,,,,
1429523395.05399990,,,,,,,,,,62937,0.097681760788,-0.016878278926,-0.07713355124,0.0286455117166,0.00870920158923,-0.00027980748564,2.26891422272,0.0498919971287,355,0,312.306091309,0.0433916971087
1429523395.54499984,,,,,,,,,,63447,0.102427117527,-0.0162993445992,-0.0776917338371,-0.00939844176173,0.0150099145249,0.000933245755732,3.44753479958,0.055339358747,355,0,311.190948486,0.0553456805646
1429523395.70199990,63638,476028043,85340886,415381,3248,-1,8,-6,35552,,,,,,,,,,,,,
1429523395.99499989,,,,,,,,,,63957,0.103411227465,-0.0143862115219,-0.0794540047646,-0.00606210716069,0.0104749500751,-0.00153784826398,,,,,,
1429523396.08699989,,,,,,,,,,,,,,,,,2.95125126839,0.116470269859,355,0,312.306091309,0.0659109726548
1429523396.65599990,,,,,,,,,,64467,0.0970815941691,-0.0172750707716,-0.0823927074671,0.0604167729616,-0.00283954152837,-0.00385423190892,3.12815904617,0.112214505672,355,0,312.477661133,0.0774205327034
1429523396.78699994,64638,476028054,85340887,415516,3383,5,8,-8,35521,,,,,,,,,,,,,
1429523397.13800001,,,,,,,,,,64977,0.10231821239,-0.0169784352183,-0.0845786258578,0.0017998481635,0.000472708547022,-0.00213874317706,,,,,,
1429523397.13899994,,,,,,,,,,,,,,,,,3.85191369057,0.175257518888,355,0,311.276733398,0.0880470722914
1429523397.61299992,,,,,,,,,,65497,0.100256890059,-0.0196976717561,-0.0870657414198,0.00527369603515,-0.00725658610463,-0.000957156531513,,,,,,
1429523397.70899987,,,,,,,,,,,,,,,,,4.02691841125,0.207518562675,355,0,312.048736572,0.103075280786
1429523397.89100003,65654,476028072,85340911,415596,3463,14,16,-10,35498,,,,,,,,,,,,,
1429523398.20499992,,,,,,,,,,65997,0.0996934846044,-0.0215673670173,-0.089437931776,0.00230819219723,0.0132971638814,-0.00395443104208,2.92076873779,0.283798784018,354,0,311.705627441,0.103796109557
1429523398.76499987,,,,,,,,,,66507,0.0994636937976,-0.0212238095701,-0.0918836668134,-0.00714201573282,-0.0128720458597,-0.00119922123849,3.27616596222,0.262295424938,354,0,311.01940918,0.102250173688
1429523398.77999997,66662,476028090,85340907,415615,3482,20,11,-10,35468,,,,,,,,,,,,,
1429523399.10200000,,,,,,,,,,67017,0.0974274873734,-0.0206152610481,-0.0943425819278,-0.0443608127534,-0.00239511393011,-0.000197392888367,,,,,,
1429523399.22099996,,,,,,,,,,,,,,,,,2.76960134506,0.217265635729,354,0,311.276733398,0.112080417573
1429523399.67799997,,,,,,,,,,67527,0.0955805554986,-0.0185807980597,-0.09609041363,-0.0143312672153,0.0208555795252,-0.00179671030492,2.65275073051,0.171836644411,354,0,312.220306396,0.128248929977
1429523399.82099986,67658,476028085,85340910,415951,3819,14,8,-13,35446,,,,,,,,,,,,,
1429523400.12800002,,,,,,,,,,68027,0.096797324717,-0.0169260744005,-0.0981440842152,0.0240481290966,-0.0011045280844,-0.00200511980802,,,,,,
1429523400.22099996,,,,,,,,,,,,,,,,,2.24744296074,0.102372780442,354,0,311.105194092,0.134916216135
1429523400.70499992,,,,,,,,,,68527,0.0968306660652,-0.0177891794592,-0.100009128451,-0.010513022542,-0.00530806928873,-0.00272630155087,2.69520378113,0.105090178549,354,0,310.762084961,0.132639363408
1429523400.87199998,68663,476028068,85340913,416059,3926,3,6,-13,35424,,,,,,,,,,,,,
1429523401.05200005,,,,,,,,,,69037,0.0952110663056,-0.0170220565051,-0.102544754744,0.00550989480689,0.0093681467697,-0.00171732343733,3.24272012711,0.0328039638698,354,0,312.134521484,0.14531365037
1429523401.80599999,,,,,,,,,,69547,0.0891293659806,-0.0168994404376,-0.104315683246,0.0425046309829,0.0102538000792,-0.000521769747138,,,,,,
1429523401.80699992,,,,,,,,,,,,,,,,,2.46100473404,0.0181617029011,354,0,311.96295166,0.14238665998
1429523401.88899994,69658,476028059,85340895,416210,4077,0,-2,-13,35399,,,,,,,,,,,,,
1429523402.10399985,,,,,,,,,,70047,0.0926002860069,-0.0163228176534,-0.106182463467,-0.00759602058679,-0.00370736094192,0.000326553359628,,,,,,
1429523402.10500002,,,,,,,,,,,,,,,,,3.51244091988,0.0558133497834,353,0,312.735015869,0.146670401096
1429523402.74899983,70673,476028051,85340906,416342,4210,-2,2,-14,35382,70567,0.0917498767376,-0.0169234145433,-0.107451036572,-0.00319592608139,0.0175825431943,-0.00282698962837,3.36260414124,0.0359790921211,353,0,311.791412354,0.149472251534
1429523403.18999982,,,,,,,,,,71077,0.0926155745983,-0.017106031999,-0.109759345651,0.00742607470602,0.00395566457883,-0.00232918281108,2.28811001778,0.0424062423408,353,0,312.477661133,0.143938004971
1429523403.69299984,,,,,,,,,,71587,0.091378621757,-0.0168746653944,-0.111550562084,-0.0342917852104,-0.00407009664923,0.0028872648254,,,,,,
1429523403.70700002,,,,,,,,,,,,,,,,,2.10795259476,0.0714107751846,353,0,312.563446045,0.139947712421
1429523403.85699987,71682,476028043,85340888,416357,4224,-3,-5,-13,35358,,,,,,,,,,,,,
1429523404.16499996,,,,,,,,,,72097,0.0920281261206,-0.0170438159257,-0.113055735826,-0.013861624524,0.0030861585401,0.000255975872278,1.85009777546,0.0668918639421,353,0,311.705627441,0.130216151476
1429523404.75999999,,,,,,,,,,72597,0.0920708999038,-0.0170012116432,-0.11422021687,0.00883585587144,0.000466230558231,-0.000105179846287,,,,,,
1429523404.77499986,72688,476028034,85340892,416303,4170,-5,-3,-12,35343,,,,,,,,2.2526447773,0.0652018263936,353,0,312.563446045,0.119590558112
1429523405.25799990,,,,,,,,,,73107,0.0937400311232,-0.0157610736787,-0.115661583841,0.000821236288175,0.00275779538788,-0.000815742649138,1.09912180901,0.114170268178,353,0,311.705627441,0.1112113446
1429523405.74199986,,,,,,,,,,73617,0.091974414885,-0.0169044453651,-0.117127664387,0.00622476637363,0.000813784019556,-0.00117812212557,0.623931527138,0.0796396434307,353,0,312.220306396,0.108005531132
1429523405.77699995,73698,476028021,85340896,416270,4137,-7,-1,-10,35327,,,,,,,,,,,,,
1429523406.21199989,,,,,,,,,,74117,0.0923428088427,-0.0182277392596,-0.118528798223,-0.0103584583849,8.9053530246e-05,0.0009048813954,,,,,,
1429523406.22899985,,,,,,,,,,,,,,,,,0.0,0.0467122271657,353,0,311.448303223,0.104039251804
1429523406.64400005,,,,,,,,,,74617,0.0935312286019,-0.0193853545934,-0.119430474937,-0.00859091058373,-0.00045387330465,-0.0024122139439,0.0,0.0230856686831,353,0,312.477661133,0.101633429527
1429523406.81499982,74703,476028032,85340901,416300,4168,2,0,-9,35314,,,,,,,,,,,,,
1429523407.14899993,,,,,,,,,,75127,0.0937649905682,-0.019206687808,-0.120454162359,0.00136187649332,0.000594408484176,-0.00189612619579,,,,,,
1429523407.24699998,,,,,,,,,,,,,,,,,0.543489933014,0.0298621300608,353,0,313.850311279,0.107945680618
1429523407.76499987,,,,,,,,,,75647,0.0960986837745,-0.0181554388255,-0.121420539916,0.0130598749965,0.00096865411615,-0.00330020021647,3.15413570404,0.0524225942791,353,0,312.992401123,0.112261459231
1429523407.98099995,75703,476028020,85340913,416529,4397,-3,4,-11,35303,,,,,,,,,,,,,
1429523408.28499985,,,,,,,,,,76147,0.0966224819422,-0.0194148719311,-0.122565567493,-0.00596579350531,-0.00201620557345,-0.000165887176991,1.77623641491,0.0365480743349,352,0,313.335540771,0.10357337445
1429523408.79999995,,,,,,,,,,76657,0.0919294655323,-0.0198799408972,-0.123755604029,-0.0122648030519,0.00094323704252,-0.0027975384146,2.30869483948,0.0244351066649,352,0,313.507141113,0.0983581617475
1429523408.94099998,76708,476028026,85340906,416484,4351,2,0,-9,35290,,,,,,,,,,,,,
1429523409.21899986,,,,,,,,,,77157,0.102363973856,-0.0183668583632,-0.12424569577,0.0455261953175,-0.00758044142276,-0.00209919083863,2.45791268349,0.0700244680047,352,0,313.078186035,0.0921014174819
1429523410.05599999,,,,,,,,,,77867,0.100948110223,-0.017558246851,-0.125580519438,0.0100937169045,-0.0108823589981,-0.00123726855963,3.09734153748,0.0958917289972,352,0,311.877197266,0.0732917934656
1429523410.23899984,78113,476028000,85340933,416135,4002,-9,9,-7,35279,,,,,,,,,,,,,
1429523410.75699997,,,,,,,,,,78587,0.0998408347368,-0.016480917111,-0.126899272203,-0.00805766507983,-0.000569644500501,-0.00124414544553,3.24136614799,0.147310584784,352,0,312.306091309,0.0694037526846
1429523411.64400005,,,,,,,,,,79287,0.0956970974803,-0.0179442111403,-0.1283724159,-0.00858938973397,-0.000930125825107,-0.00247399415821,2.2698969841,0.130399733782,352,0,312.048736572,0.061968062073
1429523411.75099993,79512,476027988,85340940,416016,3883,-10,8,-6,35262,,,,,,,,,,,,,
1429523412.34999990,,,,,,,,,,79987,0.095431394875,-0.0177510417998,-0.129477411509,0.0076369359158,0.00238515390083,-0.000909062102437,1.48803663254,0.12939029932,352,0,313.249755859,0.052419167012
1429523412.86800003,,,,,,,,,,80687,0.0941186994314,-0.0190688371658,-0.130943179131,0.0112974587828,0.00166692491621,-0.00178705528378,2.26116323471,0.082746386528,352,0,313.163970947,0.0557996295393
1429523413.21199989,80922,476027985,85340942,416012,3880,-5,4,-5,35246,,,,,,,,,,,,,
1429523413.51399994,,,,,,,,,,81397,0.0947526991367,-0.0198610443622,-0.132286593318,0.00885212514549,-0.00165644497611,-0.00196560844779,,,,,,
1429523413.59899998,,,,,,,,,,,,,,,,,0.0,0.0582176372409,352,0,313.078186035,0.0420868098736
1429523414.40899992,,,,,,,,,,82117,0.0936727672815,-0.0211171545088,-0.133703202009,0.0137267392129,-0.000101797864772,-0.00249665323645,1.40451347828,0.0262927729636,352,0,313.078186035,0.0344696566463
1429523414.60500002,82322,476027995,85340940,415869,3736,2,0,-2,35231,,,,,,,,,,,,,
1429523415.15299988,,,,,,,,,,82817,0.0927145257592,-0.0195774491876,-0.135223448277,0.00149532558862,0.000619096157607,0.000112042762339,0.327561289072,0.036323454231,352,0,312.048736572,0.0129465721548
1429523415.59099984,,,,,,,,,,83517,0.0928639248013,-0.0178167484701,-0.13625523448,-0.00163952959701,-0.000231866375543,-0.0011113518849,0.0,0.0701617896557,352,0,312.134521484,0.000257464358583
1429523415.95799994,83733,476027978,85340938,415561,3428,-6,-1,0,35218,,,,,,,,,,,,,
1429523416.37299991,,,,,,,,,,84227,0.093910753727,-0.0179428681731,-0.1366866678,-0.00389186269604,-0.00111070473213,-0.00128008797765,,,,,,
1429523416.42199993,,,,,,,,,,,,,,,,,0.0,0.043696988374,352,0,312.048736572,-0.00434829480946
1429523417.33899999,,,,,,,,,,84927,0.0934367105365,-0.0180869158357,-0.137426495552,0.00117935054004,0.000103826867417,0.00011875666678,0.0,0.0286591481417,352,0,313.678741455,-0.0202749427408
1429523417.55499983,85128,476027984,85340952,415296,3163,-2,1,2,35211,,,,,,,,,,,,,
1429523417.87699986,,,,,,,,,,85627,0.0917180255055,-0.0168761070818,-0.138277187943,0.00100313453004,-0.000402640551329,-0.000232133083045,0.0,0.0688370466232,352,0,312.649230957,-0.0258621182293
1429523418.45199990,,,,,,,,,,86337,0.0922013148665,-0.0183283519,-0.139313399792,-0.000391101639252,-0.00042572588427,-0.0014516254887,0.0,0.01118557062,352,0,312.820800781,-0.029642213136
1429523418.79099989,86533,476027991,85340952,415236,3103,0,-1,3,35198,,,,,,,,,,,,,
1429523419.22199988,,,,,,,,,,87037,0.0924177467823,-0.0182582102716,-0.140339821577,-0.00353419943713,0.00114866427612,-0.000404899939895,0.0,0.0116711640731,351,0,312.048736572,-0.0317188352346
1429523420.20099998,,,,,,,,,,87737,0.0912008658051,-0.0182749256492,-0.141604498029,-0.000925700820517,0.000447250669822,-0.00267644505948,0.0,0.0461276508868,351,0,312.306091309,-0.038452077657
1429523420.31299996,87938,476027994,85340950,415120,2987,0,-4,4,35187,,,,,,,,,,,,,
1429523420.64499998,,,,,,,,,,88437,0.0907946154475,-0.0183587707579,-0.142391607165,0.0022210823372,0.00166534818709,-0.00145182199776,,,,,,
1429523420.66400003,,,,,,,,,,,,,,,,,0.0,0.0537249334157,351,0,312.391876221,-0.0474293865263
1429523421.39899993,,,,,,,,,,89137,0.0895147547126,-0.0179098378867,-0.143518283963,0.00343083869666,-0.00199138442986,0.000114856287837,0.0,0.111383840442,351,0,311.96295166,-0.0589376091957
1429523421.44199991,89338,476027989,85340935,414846,2713,-4,-10,6,35175,,,,,,,,,,,,,
1429523422.02799988,,,,,,,,,,89837,0.0897103399038,-0.0178093034774,-0.144458949566,-0.000745382334571,-7.09724263288e-05,-0.00232447311282,0.0,0.108493715525,351,0,311.534057617,-0.0720107704401
1429523422.80399990,,,,,,,,,,90537,0.0900765284896,-0.0182767510414,-0.145161792636,0.00292811449617,-0.000250095967203,-0.00127273146063,0.0,0.114005275071,351,0,312.391876221,-0.0770322307944
1429523422.83899999,90738,476027998,85340929,414666,2534,0,-11,7,35167,,,,,,,,,,,,,
1429523423.43199992,,,,,,,,,,91237,0.0913792327046,-0.01872083731,-0.145826116204,0.00886666867882,-0.000951506488491,-0.00161734130234,2.14535284042,0.129201874137,351,0,312.477661133,-0.0831704363227
1429523424.16199994,,,,,,,,,,91937,0.0901963859797,-0.0190590620041,-0.146573752165,0.00311212311499,0.000446078076493,-0.00126453302801,1.88933098316,0.13947288692,351,0,313.078186035,-0.0842941552401
1429523424.29799986,92138,476028006,85340923,414541,2408,3,-11,8,35160,,,,,,,,,,,,,
1429523424.76999998,,,,,,,,,,92637,0.0860059261322,-0.0240370258689,-0.158349633217,-0.0134973013774,0.00717545440421,-0.00174549594522,3.15112257004,0.222526282072,350,0,312.391876221,-0.0899369716644
1429523425.63499999,,,,,,,,,,93337,0.0881399139762,-0.0237273927778,-0.158459573984,0.0160225778818,-0.00154336635023,-0.00190548133105,2.79211330414,0.212200030684,350,0,312.220306396,-0.0927725285292
1429523425.74399996,93538,476028016,85340927,414415,2282,12,-14,8,35091,,,,,,,,,,,,,
1429523426.40699983,,,,,,,,,,94047,0.0892119556665,-0.0226093847305,-0.158735126257,-0.0110141467303,-0.000481043243781,-0.00102148018777,1.25300693512,0.194513171911,350,0,311.791412354,-0.0847904160619
1429523427.04099989,,,,,,,,,,94747,0.0895816534758,-0.0221889764071,-0.158877551556,-0.00855300202966,0.0056335371919,-0.00362467579544,0.0,0.186826214194,350,0,311.96295166,-0.0859844908118
1429523427.15999985,94942,476028023,85340931,414435,2302,12,-11,8,35090,,,,,,,,,,,,,
1429523427.67199993,,,,,,,,,,95457,0.0895374491811,-0.0194544680417,-0.158484473825,-0.000861583335791,0.0026994170621,-0.000996450893581,0.259018003941,0.115901082754,350,0,312.220306396,-0.0765266865492
1429523428.16100001,95952,476028017,85340943,414500,2367,6,-5,7,35093,,,,,,,,,,,,,
1429523428.24199986,,,,,,,,,,95957,0.0910057872534,-0.0189394652843,-0.158313408494,0.00369161251001,0.00183187820949,-0.0013340273872,,,,,,
1429523428.38299990,,,,,,,,,,,,,,,,,0.0,0.0852809771895,350,0,311.362518311,-0.0747787430882
1429523428.60899997,,,,,,,,,,96467,0.0901244804263,-0.0187193844467,-0.158597409725,-0.000328712107148,-0.00322322128341,-0.00132932234555,0.0,0.091494999826,350,0,312.563446045,-0.0717005357146
1429523428.97700000,96948,476028014,85340936,414538,2405,3,-7,7,35090,,,,,,,,,,,,,
1429523429.10299993,,,,,,,,,,96997,0.0901839509606,-0.017731776461,-0.158460795879,0.000377553747967,-0.00216448656283,-0.00114459078759,0.0,0.0604115016758,350,0,312.134521484,-0.0727462768555
1429523429.53699994,,,,,,,,,,97497,0.0904394760728,-0.0168307926506,-0.158617094159,0.0038735109847,0.00255725975148,-0.00131069496274,,,,,,
1429523429.55299997,,,,,,,,,,,,,,,,,0.0,0.042094193399,350,0,311.791412354,-0.0743788778782
1429523430.00199986,97981,476027999,85340934,414669,2536,-6,-8,6,35087,,,,,,,,,,,,,
1429523430.11599994,,,,,,,,,,98017,0.0886966958642,-0.0159251410514,-0.15931648016,-0.00277371890843,0.00291984598152,-0.000436086207628,0.0,0.105906270444,350,0,312.134521484,-0.0643644705415
1429523430.62999988,,,,,,,,,,98517,0.0888899192214,-0.0153305158019,-0.159257426858,-0.00538263190538,-0.00457649258897,0.00114280171692,0.0,0.113163128495,350,0,312.306091309,-0.0683754608035
1429523431.06499982,98983,476027978,85340939,414678,2546,-16,-5,6,35087,,,,,,,,,,,,,
1429523431.07799983,,,,,,,,,,99027,0.0892041102052,-0.0136805921793,-0.159322217107,0.00247496040538,-0.000542532536201,0.000102734193206,0.0,0.171208068728,350,0,311.791412354,-0.0628956332803
1429523431.66799998,,,,,,,,,,99537,0.0901124551892,-0.0133715346456,-0.159108400345,0.000565948255826,0.000160335563123,-0.00198042485863,0.0,0.194318845868,350,0,312.306091309,-0.0696000903845
1429523432.06900001,99984,476027962,85340951,414564,2431,-19,0,7,35087,,,,,,,,,,,,,
1429523432.20199990,,,,,,,,,,100037,0.0904182866216,-0.0136672044173,-0.15915171802,-0.0013458491303,0.00120296620298,-0.000749046914279,0.0,0.19946873188,350,0,312.820800781,-0.0726405754685
1429523432.73499990,,,,,,,,,,100547,0.0902960300446,-0.0137553699315,-0.159218981862,0.00179431890137,-0.00193696585484,-0.00144022889435,,,,,,
1429523432.73599982,,,,,,,,,,,,,,,,,0.0,0.226561442018,350,0,311.877197266,-0.0734840035439
1429523433.03699994,100992,476027939,85340953,414457,2324,-26,0,7,35087,,,,,,,,,,,,,
1429523433.13599992,,,,,,,,,,101047,0.0900376066566,-0.0133988838643,-0.159294039011,-0.000472144165542,-0.000710002495907,-0.00178288202733,0.0,0.263446003199,350,0,312.649230957,-0.0746296718717
1429523433.56200004,,,,,,,,,,101547,0.0902607515454,-0.0146052446216,-0.15928222239,5.89183764532e-05,0.000499653862789,-0.00194780435413,,,,,,
1429523433.72000003,,,,,,,,,,,,,,,,,0.0,0.244112700224,350,0,312.048736572,-0.0702624022961
1429523434.02300000,101999,476027940,85340965,414514,2381,-17,2,6,35087,,,,,,,,,,,,,
1429523434.15599990,,,,,,,,,,102057,0.0909264832735,-0.0168358460069,-0.159236639738,-0.00150223099627,0.000998903182335,-0.000890255905688,0.0,0.174870401621,350,0,312.906585693,-0.0668654963374
1429523434.59599996,,,,,,,,,,102587,0.0904470384121,-0.0171919930726,-0.159478530288,-0.00342595344409,0.000472217798233,-0.00140700675547,0.0,0.171353682876,350,0,311.705627441,-0.0661882832646
1429523435.16299987,103008,476027934,85340958,414509,2376,-14,-1,6,35084,,,,,,,,,,,,,
1429523435.25899982,,,,,,,,,,103097,0.0897802263498,-0.0182786509395,-0.159780114889,-0.00203404179774,0.000985173275694,-0.00140211451799,0.0,0.144881024957,350,0,311.448303223,-0.0645673945546
1429523435.77900004,,,,,,,,,,103607,0.0899779126048,-0.0185852553695,-0.160123020411,0.00128167797811,0.000285955902655,-0.0015703747049,0.0,0.143711000681,350,0,312.477661133,-0.0652792900801
1429523436.14499998,104018,476027927,85340957,414501,2369,-12,-2,6,35082,,,,,,,,,,,,,
1429523436.14599991,,,,,,,,,,104117,0.0901532843709,-0.0191547665745,-0.160130605102,0.000760820170399,-6.8063265644e-05,-0.0015629157424,0.0,0.126595422626,350,0,312.906585693,-0.0579637773335
1429523436.66299987,,,,,,,,,,104617,0.0893616080284,-0.0200033504516,-0.160349607468,-0.00290808873251,-0.000947821419686,0.000536816194654,,,,,,
1429523436.69599986,,,,,,,,,,,,,,,,,0.0,0.112764045596,350,0,313.078186035,-0.0500923655927
1429523437.10800004,105028,476027924,85340942,414666,2533,-8,-8,4,35079,,,,,,,,,,,,,
1429523437.27999997,,,,,,,,,,105127,0.0890199914575,-0.0202685575932,-0.160715475678,-0.00238969363272,-0.000600526516791,-0.00120300240815,,,,,,
1429523437.28099990,,,,,,,,,,,,,,,,,0.0,0.125846937299,350,0,312.820800781,-0.041921120137
1429523438.00300002,,,,,,,,,,105637,0.0896996185184,-0.0215867236257,-0.160711273551,-0.00325231463648,0.000433797133155,-0.0018918775022,0.0,0.0910228788853,350,0,312.820800781,-0.0449940487742
1429523438.23399997,106028,476027931,85340937,414658,2525,-1,-8,4,35079,106137,0.0894907936454,-0.0217402987182,-0.160780504346,-0.00202817749232,-0.0016599285882,-0.000488470308483,0.0,0.0942230150104,350,0,312.134521484,-0.0444792658091
1429523438.73799992,,,,,,,,,,106647,0.0900194868445,-0.021261498332,-0.160734266043,0.00303780916147,-0.000953426526394,-0.00117943156511,0.0,0.0922186970711,350,0,312.134521484,-0.0516523234546
1429523439.30299997,107042,476027923,85340935,414604,2472,-4,-7,5,35079,107157,0.0906540751457,-0.0205079428852,-0.160715967417,0.0033935145475,0.00115292542614,-0.00186985265464,0.0,0.0785603970289,350,0,312.735015869,-0.0560967214406
1429523440.02600002,,,,,,,,,,107677,0.0914585292339,-0.02008751221,-0.160397455096,0.00131110893562,0.000288864888716,-0.00133480131626,,,,,,
1429523440.03799987,,,,,,,,,,,,,,,,,0.0,0.0688564106822,350,0,311.96295166,-0.0674728527665
1429523440.18899989,108038,476027916,85340936,414395,2262,-6,-6,7,35080,,,,,,,,,,,,,
1429523440.23899984,,,,,,,,,,108187,0.0907000079751,-0.0197822134942,-0.160388961434,0.0037495600991,0.00151737476699,-0.00132974423468,,,,,,
1429523440.42899990,,,,,,,,,,,,,,,,,0.0,0.0939607471228,350,0,311.791412354,-0.0748477354646
1429523440.80900002,,,,,,,,,,108687,0.0909957885742,-0.0186621285975,-0.160561129451,0.000612493953668,-0.000214439933188,-0.00254449527711,0.0,0.115932613611,350,0,311.362518311,-0.080600745976
1429523441.17799997,109053,476027897,85340931,414247,2114,-15,-6,7,35079,,,,,,,,,,,,,
1429523441.27399993,,,,,,,,,,109187,0.0904491096735,-0.0169523507357,-0.160407960415,-0.00113193830475,-0.00158776144963,-0.000618829391897,0.0,0.182131871581,350,0,311.534057617,-0.0830500051379
1429523442.26300001,,,,,,,,,,109697,0.0900149047375,-0.0163183938712,-0.16024929285,0.00375384674408,-0.00210012216121,-0.00166063755751,0.0,0.223204910755,350,0,311.791412354,-0.0915698111057
1429523442.30799985,110058,476027878,85340934,413954,1821,-19,-3,9,35083,,,,,,,,,,,,,
1429523442.30999994,,,,,,,,,,110197,0.0914612784982,-0.0171567555517,-0.159899100661,0.000452287204098,0.00015988049563,-0.00164910405874,,,,,,
1429523442.50899982,,,,,,,,,,,,,,,,,0.0,0.18322391808,350,0,312.477661133,-0.0952680855989
1429523442.97700000,,,,,,,,,,110697,0.0927038192749,-0.0181461218745,-0.159238412976,0.000118050840683,-0.000195567728952,0.000283159315586,0.0,0.14806330204,350,0,312.220306396,-0.0891773551702
1429523443.09699988,111068,476027873,85340954,413992,1859,-15,3,8,35088,,,,,,,,,,,,,
1429523443.27799988,,,,,,,,,,111207,0.0929674133658,-0.0181553028524,-0.158932924271,0.00658427784219,-0.000542778405361,-0.000230807811022,,,,,,
1429523443.32900000,,,,,,,,,,,,,,,,,0.0,0.148946747184,350,0,313.078186035,-0.089963234961
1429523444.14699984,,,,,,,,,,111707,0.0931499227881,-0.0179271697998,-0.158771514893,-4.63858596049e-05,-0.000362797523849,0.000125580467284,0.0,0.164193719625,350,0,311.96295166,-0.089635245502
1429523444.36199999,112068,476027875,85340965,413895,1762,-8,6,8,35090,112217,0.0942510217428,-0.0204345323145,-0.158592179418,0.00363363046199,-0.000564443529584,-0.0024805450812,0.0,0.0987521708012,350,0,312.048736572,-0.0927275419235
1429523444.97899985,,,,,,,,,,112717,0.0936366170645,-0.0200417097658,-0.158754393458,0.0017066905275,0.0020619535353,-0.0010802205652,0.0,0.0929587185383,350,0,312.391876221,-0.095047108829
1429523445.22899985,113072,476027887,85340975,413668,1535,0,6,10,35091,,,,,,,,,,,,,
1429523445.29600000,,,,,,,,,,113237,0.0925448685884,-0.0214295573533,-0.158850178123,-0.00318548129871,-0.00213926285505,-0.00159913580865,,,,,,
1429523445.43299985,,,,,,,,,,,,,,,,,0.0,0.0423956401646,350,0,312.306091309,-0.101205714047
1429523446.16499996,,,,,,,,,,113737,0.0928011089563,-0.021649889648,-0.158940628171,-0.00719689484686,0.00239784643054,-0.000893134623766,,,,,,
1429523446.28299999,,,,,,,,,,,,,,,,,1.87615990639,0.0495466515422,350,0,312.048736572,-0.101409934461
1429523446.28399992,114078,476027894,85340965,413693,1561,4,0,9,35088,,,,,,,,,,,,,
1429523446.38399982,,,,,,,,,,114247,0.0925969034433,-0.0218341704458,-0.15909524262,0.00414167065173,-0.000219661393203,-0.00141329597682,0.0,0.0440510511398,350,0,313.078186035,-0.0968899652362
1429523446.85299993,,,,,,,,,,114747,0.092168353498,-0.0221745129675,-0.159172177315,0.00291581405327,-0.0017882353859,-0.000361772254109,0.0,0.0523311682045,350,0,312.048736572,-0.0986609458923
1429523447.20099998,115082,476027901,85340957,413592,1459,5,-4,10,35087,,,,,,,,,,,,,
1429523447.40599990,,,,,,,,,,115257,0.0908210799098,-0.0216428060085,-0.159218803048,-0.00808537658304,-0.0117310993373,0.000339209102094,,,,,,
1429523447.46799994,,,,,,,,,,,,,,,,,0.0,0.0653879716992,350,0,313.249755859,-0.104560852051
1429523448.13100004,,,,,,,,,,115767,0.0893445238471,-0.0212044715881,-0.159312844276,-0.00355279212818,0.00188581633847,0.00104011315852,0.0,0.0968319103122,350,0,313.078186035,-0.101492509246
1429523448.15499997,116092,476027908,85340940,413585,1452,6,-10,9,35086,,,,,,,,,,,,,
1429523448.39599991,,,,,,,,,,116277,0.0873198285699,-0.0214560516179,-0.159702599049,0.00184702232946,0.000487231067382,-0.00140234641731,1.77268707752,0.158194839954,350,0,311.96295166,-0.0984390974045
1429523448.97300005,,,,,,,,,,116787,0.0850779041648,-0.0204786136746,-0.159776464105,-0.0159526895732,0.0052106641233,-0.00209528300911,1.74992918968,0.162580341101,350,0,313.078186035,-0.0964389368892
1429523449.24199986,117092,476027910,85340922,413565,1432,3,-14,9,35084,,,,,,,,,,,,,
1429523449.37599993,,,,,,,,,,117287,0.0902553200722,-0.0188235025853,-0.159728914499,0.000812579644844,0.00190927903168,-0.00226399023086,,,,,,
1429523449.37699986,,,,,,,,,,,,,,,,,0.0,0.141392827034,350,0,312.048736572,-0.0957070738077
1429523450.18999982,,,,,,,,,,117787,0.0879383161664,-0.0194704309106,-0.159536167979,-0.0082501443103,0.00277814338915,-0.00033600255847,2.18973517418,0.131326779723,350,0,313.249755859,-0.0848781690001
1429523450.22199988,118102,476027919,85340919,413591,1458,4,-12,8,35085,,,,,,,,,,,,,
1429523450.34200001,,,,,,,,,,118287,0.0849579423666,-0.0184324979782,-0.159439533949,0.0243926662952,0.00557699147612,0.000543117523193,,,,,,
1429523450.44299984,,,,,,,,,,,,,,,,,0.0,0.121392570436,350,0,311.96295166,-0.080583319068
1429523450.92599988,,,,,,,,,,118797,0.0869532600045,-0.0166451670229,-0.15911437571,0.000307055423036,0.000878960709088,-0.000499994494021,0.0,0.134508907795,350,0,312.134521484,-0.0696013048291
1429523451.22700000,119118,476027912,85340904,413729,1596,-5,-13,6,35088,,,,,,,,,,,,,
1429523451.46000004,,,,,,,,,,119307,0.0867007300258,-0.0162547826767,-0.158850520849,-0.003701322712,0.000882413936779,0.000204157084227,0.0,0.137029781938,350,0,312.906585693,-0.0664712637663
1429523452.33099985,120118,476027926,85340884,413911,1778,0,-16,5,35088,119807,0.0861804485321,-0.0174263548106,-0.158936098218,-0.00666834507138,-1.05251092464e-06,-0.000663083977997,0.0,0.161110013723,350,0,313.678741455,-0.0582297407091
1429523452.41799998,,,,,,,,,,120317,0.0862042456865,-0.0175122935325,-0.158982470632,0.00310855964199,-0.00244647450745,-0.000657484866679,,,,,,
1429523452.50300002,,,,,,,,,,,,,,,,,0.0,0.171580299735,350,0,313.764526367,-0.053728222847
1429523453.07900000,,,,,,,,,,120817,0.0876108258963,-0.0177130457014,-0.158691629767,0.00224949512631,0.000346001295839,-0.00291832070798,0.0,0.143262580037,350,0,312.649230957,-0.0442999489605
1429523453.19899988,121118,476027936,85340873,413977,1844,0,-14,4,35090,,,,,,,,,,,,,
1429523453.38399982,,,,,,,,,,121317,0.0873232856393,-0.0175138413906,-0.158561557531,-0.00385366939008,0.00157112185843,-0.00134129915386,,,,,,
1429523453.46499991,,,,,,,,,,,,,,,,,0.0,0.138417109847,350,0,312.477661133,-0.0476862862706
1429523454.00099993,,,,,,,,,,121827,0.0885926410556,-0.017684513703,-0.158099591732,0.000347118184436,0.00244363909587,0.00128461513668,0.602167248726,0.110616974533,350,0,312.391876221,-0.0474034398794
1429523454.20000005,122118,476027945,85340871,413860,1727,1,-10,5,35094,,,,,,,,,,,,,
1429523454.40400004,,,,,,,,,,122327,0.089910812676,-0.0180417206138,-0.158003643155,0.00577104976401,-0.00157467124518,-0.00237133260816,0.0,0.0794823765755,350,0,312.134521484,-0.0521558560431
1429523454.93799996,,,,,,,,,,122827,0.0910001024604,-0.0179850291461,-0.157357513905,-0.00992172211409,2.59291846305e-06,-0.0018384931609,,,,,,
1429523455.03499985,,,,,,,,,,,,,,,,,0.0,0.0267180334777,350,0,311.534057617,-0.0535492561758
1429523455.17299986,123128,476027952,85340891,413739,1606,0,0,5,35100,,,,,,,,,,,,,
1429523455.50300002,,,,,,,,,,123347,0.090631455183,-0.0171187128872,-0.156953334808,-0.00119294994511,0.00157767313067,-0.000260256230831,,,,,,
1429523455.51300001,,,,,,,,,,,,,,,,,0.905093610287,0.00892296712846,351,0,312.134521484,-0.0629099979997
1429523455.98599982,,,,,,,,,,123857,0.0892767682672,-0.017945965752,-0.157225608826,-0.00294650765136,-2.47498974204e-07,-0.00130358152092,,,,,,
1429523456.18899989,,,,,,,,,,,,,,,,,0.0,0.0508800558746,350,0,312.820800781,-0.0633956566453
1429523456.18999982,124143,476027958,85340880,413620,1487,0,-3,6,35100,,,,,,,,,,,,,
1429523456.43899989,,,,,,,,,,124367,0.090647302568,-0.0171300824732,-0.156686618924,0.00143332406878,0.00262737460434,0.000276581384242,0.0,0.0153196416795,351,0,311.619842529,-0.0621046721935
1429523456.93899989,,,,,,,,,,124877,0.0911727547646,-0.0170591045171,-0.156534150243,0.00248515931889,0.000884261680767,-0.00163705833256,0.0,0.0342302210629,351,0,311.619842529,-0.0621036328375
1429523457.27199984,125153,476027955,85340896,413561,1428,-4,2,6,35104,,,,,,,,,,,,,
1429523457.48799992,,,,,,,,,,125397,0.0905490890145,-0.0156819764525,-0.15625795722,-0.00205242075026,-0.00154307438061,-0.000758375972509,,,,,,
1429523457.56200004,,,,,,,,,,,,,,,,,0.0,0.0860607847571,351,0,311.877197266,-0.0613315552473
1429523457.99099994,,,,,,,,,,125897,0.0917508155107,-0.0155165223405,-0.155726119876,-0.00221344595775,-0.00136667024344,-0.00179658550769,0.0,0.12151902914,351,0,311.448303223,-0.0564605854452
1429523458.28999996,126162,476027948,85340923,413699,1566,-8,10,5,35108,,,,,,,,,,,,,
1429523458.50699997,,,,,,,,,,126397,0.091387450695,-0.0156057104468,-0.155700221658,-0.00308691873215,0.00107562355697,0.00117555819452,0.0,0.125624060631,351,0,311.534057617,-0.0491835959256
1429523458.97399998,,,,,,,,,,126897,0.0912299826741,-0.0162596497685,-0.155499607325,-0.00256434734911,-0.000502021168359,-0.00108826160431,0.0,0.111531838775,351,0,311.96295166,-0.0452087856829
1429523459.24199986,127163,476027958,85340927,413870,1738,-2,7,4,35108,,,,,,,,,,,,,
1429523459.46799994,,,,,,,,,,127407,0.0901815667748,-0.0180172268301,-0.155753225088,-0.00134959141724,-0.00139149161987,-0.000735942274332,0.0,0.0596291013062,351,0,312.477661133,-0.0394273102283
1429523460.30099988,,,,,,,,,,127907,0.0885512381792,-0.018351951614,-0.156019032001,3.43744759448e-05,0.000526837829966,-0.000385880470276,0.0,0.00787985138595,351,0,312.048736572,-0.0389730036259
1429523460.39699984,128172,476027966,85340910,413934,1801,0,-1,3,35105,,,,,,,,,,,,,
1429523460.47799993,,,,,,,,,,128417,0.0873833447695,-0.018116498366,-0.15630415082,0.00264073908329,-0.00104351644404,-0.000559339299798,0.0,0.0460189133883,351,0,312.477661133,-0.0355508551002
1429523461.04099989,,,,,,,,,,128927,0.0876815840602,-0.0183132197708,-0.156030982733,0.00316465389915,-0.000522207235917,0.00136483926326,0.0,0.0630198195577,351,0,311.96295166,-0.0367946736515
1429523461.25099993,129194,476027975,85340900,413978,1846,0,-4,3,35106,,,,,,,,,,,,,
1429523461.50000000,,,,,,,,,,129427,0.0884565263987,-0.0178046319634,-0.155817046762,-0.00136432610452,0.000530397926923,-0.000374558381736,0.0,0.0404442325234,351,0,312.048736572,-0.0362067334354
1429523462.13100004,,,,,,,,,,129927,0.0888109579682,-0.0179721806198,-0.15546785295,-0.00275481282733,-0.00121509132441,-0.00176522601396,,,,,,
1429523462.26499987,,,,,,,,,,,,,,,,,0.0,0.0296727716923,351,0,311.877197266,-0.0374085530639
1429523462.33200002,130198,476027981,85340914,413917,1785,1,0,3,35110,,,,,,,,,,,,,
1429523462.56799984,,,,,,,,,,130427,0.0899685323238,-0.0181127898395,-0.155067399144,-0.00204411824234,-0.00156523287296,-0.000186678022146,0.0,0.0196413304657,351,0,312.048736572,-0.0373035632074
1429523463.03199983,,,,,,,,,,130927,0.0897030979395,-0.0183922871947,-0.15509352088,-0.00221810187213,0.000701571581885,-0.000880403444171,0.0,0.0313588827848,351,0,312.220306396,-0.0305403955281
1429523463.25300002,131208,476027988,85340923,414024,1891,3,1,3,35112,,,,,,,,,,,,,
1429523463.48399997,,,,,,,,,,131437,0.0902613773942,-0.0186009332538,-0.154843777418,0.00703481817618,0.00244609359652,-0.000351436436176,0.0,0.0427172370255,351,0,311.96295166,-0.029528291896
1429523464.10299993,,,,,,,,,,131947,0.090159997344,-0.0186805669218,-0.154586836696,0.00214843312278,-0.000524176750332,-0.00104521866888,,,,,,
1429523464.15599990,,,,,,,,,,,,,,,,,0.0,0.0586886256933,351,0,312.563446045,-0.0319402180612
1429523464.28900003,132213,476027991,85340933,414014,1881,1,4,3,35115,,,,,,,,,,,,,
1429523464.57099986,,,,,,,,,,132457,0.0907016396523,-0.016927273944,-0.154182687402,0.00826364010572,0.00368374865502,0.000357128679752,0.0,0.0532346144319,351,0,312.906585693,-0.0284750740975
1429523465.12500000,,,,,,,,,,132957,0.0919384881854,-0.0165762789547,-0.153760403395,0.00721895741299,-0.00189669162501,-0.00120896473527,0.0,0.073252864182,351,0,312.906585693,-0.0216323956847
1429523465.35699987,133218,476027983,85340947,414014,1881,-4,6,2,35119,,,,,,,,,,,,,
1429523465.62100005,,,,,,,,,,133457,0.089193187654,-0.0177229642868,-0.153394535184,0.00669993786141,-0.00260300468653,0.000541864894331,,,,,,
1429523465.63599992,,,,,,,,,,,,,,,,,0.0,0.0796534121037,351,0,312.306091309,-0.0264008156955
1429523466.17499995,,,,,,,,,,133967,0.0914354771376,-0.0179693046957,-0.153095409274,0.00530270207673,0.000712288543582,-0.000501655973494,,,,,,
1429523466.20899987,,,,,,,,,,,,,,,,,0.0,0.075314193964,351,0,312.992401123,-0.0226525627077
1429523466.22599983,134222,476028001,85340953,413869,1736,4,4,2,35121,,,,,,,,,,,,,
1429523466.67700005,,,,,,,,,,134467,0.0887307152152,-0.0193685628474,-0.153194636106,-0.0056952345185,-0.00977386720479,0.00142148602754,0.0,0.0724838599563,351,0,312.563446045,-0.0240891966969
1429523467.02999997,,,,,,,,,,134997,0.0853347554803,-0.019591761753,-0.153225749731,-0.0102382227778,-0.00506023596972,0.00107463635504,0.0,0.0539333261549,351,0,311.448303223,-0.0212384294719
1429523467.27900004,135228,476028003,85340955,413802,1669,2,1,2,35121,,,,,,,,,,,,,
1429523467.58200002,,,,,,,,,,135507,0.0850141793489,-0.0198495313525,-0.153675183654,-0.0107742659748,0.00506518734619,-0.00171825662255,,,,,,
1429523467.59699988,,,,,,,,,,,,,,,,,0.0,0.0439959801733,351,0,311.96295166,-0.0178692415357
1429523468.19899988,,,,,,,,,,136007,0.0854771435261,-0.0210607741028,-0.153802275658,0.0346012711525,-0.0109978504479,-0.00433412753046,0.0,0.0808819830418,351,0,311.96295166,-0.0126149440184
1429523468.26999998,136228,476028013,85340943,413844,1711,6,-5,0,35118,,,,,,,,,,,,,
1429523468.68199992,,,,,,,,,,136507,0.082906216383,-0.0203117877245,-0.153939768672,0.0389658249915,0.00715680234134,-0.00398231390864,0.0,0.0834651365876,351,0,313.764526367,0.00326540670358
1429523469.14999986,,,,,,,,,,137017,0.0879528224468,-0.0209282469004,-0.153758332133,-0.0289239287376,-0.0291471611708,0.00439894944429,0.0,0.101190663874,351,0,312.220306396,0.00117902795319
1429523469.40400004,137228,476028021,85340938,413818,1685,7,-7,0,35118,,,,,,,,,,,,,
1429523469.61599994,,,,,,,,,,137527,0.0841980651021,-0.021492883563,-0.153840973973,-0.0144337946549,-0.00401647109538,0.00126114767045,0.0,0.112683460116,351,0,312.220306396,0.0117835011333
1429523470.23399997,,,,,,,,,,138037,0.0829726234078,-0.0222270172089,-0.153684392571,-0.00535077927634,-0.012051358819,-0.0017001722008,,,,,,
1429523470.23499990,,,,,,,,,,,,,,,,,0.0,0.14516055584,351,0,311.96295166,0.00977403949946
1429523470.42499995,138242,476028032,85340935,413685,1552,10,-7,-1,35119,,,,,,,,,,,,,
1429523470.65100002,,,,,,,,,,138537,0.0852168574929,-0.0207378957421,-0.1537848562,-0.0030865627341,0.00401927484199,-0.00309542939067,0.0,0.123430117965,351,0,313.078186035,0.0229324195534
1429523471.15599990,,,,,,,,,,139047,0.0858665332198,-0.0203103274107,-0.153601258993,-0.00412928313017,-0.00086544174701,-0.00256831478328,0.0,0.127237603068,351,0,312.735015869,0.0204870179296
1429523471.33500004,139242,476028032,85340934,413778,1645,7,-7,-2,35120,,,,,,,,,,,,,
1429523471.63599992,,,,,,,,,,139567,0.0857754349709,-0.0202296599746,-0.153497755527,-0.0018562785117,-0.00732304388657,0.00179852824658,0.0,0.132528230548,351,0,313.078186035,0.024105316028
1429523472.30499983,140242,476028035,85340946,413726,1593,5,-2,-2,35123,140077,0.0871832966805,-0.0188248064369,-0.153048232198,-0.00376066705212,-0.00416723685339,0.00110713299364,0.0,0.0681985095143,351,0,311.877197266,0.0248502399772
1429523472.65499997,,,,,,,,,,140587,0.0862539857626,-0.0192512199283,-0.153005242348,0.00217031687498,0.00263856211677,-0.000635775737464,,,,,,
1429523472.65599990,,,,,,,,,,,,,,,,,0.0,0.079781472683,351,0,311.96295166,0.0192082095891
1429523473.22300005,,,,,,,,,,141097,0.0863283127546,-0.0177846625447,-0.1526543051,-0.0128351440653,0.00108346075285,-0.000109167769551,0.0,0.0330034643412,351,0,311.705627441,0.0124037722126
1429523473.42899990,141248,476028031,85340945,413625,1492,0,-3,-1,35124,,,,,,,,,,,,,
1429523473.72300005,,,,,,,,,,141607,0.0868313759565,-0.0165204983205,-0.152873039246,0.0117707382888,0.0023182881996,-0.00045675970614,0.0,0.0780440568924,351,0,312.134521484,0.018364707008
1429523474.39400005,142248,476028020,85340940,413635,1502,-6,-4,-1,35124,142117,0.0864856019616,-0.0169455688447,-0.152905210853,-0.00533416448161,-0.0020504409913,-0.000279731117189,0.0,0.0850087702274,351,0,311.877197266,0.0120345130563
1429523474.72499990,,,,,,,,,,142617,0.0864581242204,-0.0163562502712,-0.152963072062,-0.00288773118518,0.00284390058368,-0.00271961744875,0.0,0.114787884057,351,0,312.391876221,0.00947446189821
1429523475.17899990,,,,,,,,,,143127,0.0862143486738,-0.0166247822344,-0.152800098062,0.00112783676013,0.000749847153202,-0.000272715464234,0.0,0.129797384143,351,0,312.048736572,0.0026370761916
1429523475.25899982,143248,476028009,85340934,413594,1461,-11,-6,0,35124,,,,,,,,,,,,,
1429523475.71199989,,,,,,,,,,143627,0.0872857794166,-0.0174789000303,-0.152663007379,-0.00130569166504,-0.000130204833113,-0.000442126765847,0.0,0.0964967533946,351,0,311.705627441,0.00668456265703
1429523476.22099996,,,,,,,,,,144127,0.0875808298588,-0.0178498476744,-0.152641355991,0.0016650154721,0.000913901953027,0.000434453599155,0.0,0.0878616198897,351,0,311.96295166,-0.00118558935355
1429523476.39899993,144258,476028014,85340937,413642,1509,-6,-5,0,35125,,,,,,,,,,,,,
1429523476.71299982,,,,,,,,,,144637,0.087999202311,-0.0197306778282,-0.152499362826,-0.000950820860453,-0.00207049888559,-0.000260016880929,0.0,0.0536212511361,351,0,312.391876221,-0.00709242047742
1429523477.24399996,,,,,,,,,,145147,0.088266633451,-0.0192302968353,-0.152570992708,0.00341032934375,-0.000319690792821,-0.00130536034703,0.0,0.0715479031205,351,0,312.391876221,-0.00834281556308
1429523477.34800005,145268,476028017,85340933,413681,1548,-4,-5,0,35126,,,,,,,,,,,,,
1429523477.70099998,,,,,,,,,,145647,0.0888142287731,-0.0175501815975,-0.1522013098,0.00324653065763,0.003012010362,-0.000253407284617,,,,,,
1429523477.70700002,,,,,,,,,,,,,,,,,0.0,0.0860568434,351,0,311.96295166,-0.0130485016853
1429523478.26699996,146268,476028011,85340934,413637,1504,-4,-4,2,35127,146147,0.0884630084038,-0.018812764436,-0.152320772409,-0.0040853722021,0.000737045891583,0.00079661142081,0.0,0.0659708231688,351,0,311.791412354,-0.0234302841127
1429523478.76699996,,,,,,,,,,146647,0.0892364606261,-0.0179234724492,-0.152085348964,-0.00128804973792,-0.000303597422317,0.000976101495326,0.0,0.0774789229035,351,0,312.563446045,-0.0266570262611
1429523479.20199990,,,,,,,,,,147157,0.0887684673071,-0.0177826397121,-0.151889368892,-0.000938789569773,-0.000130606931634,-0.00303516257554,0.327688097954,0.0767116546631,351,0,311.362518311,-0.0306601598859
1429523479.33599997,147268,476028005,85340943,413682,1549,-6,0,3,35130,,,,,,,,,,,,,
