timestamp,GLOBAL_POSITION_INT.time_boot_ms,GLOBAL_POSITION_INT.lat,GLOBAL_POSITION_INT.lon,GLOBAL_POSITION_INT.alt,GLOBAL_POSITION_INT.relative_alt,GLOBAL_POSITION_INT.vx,GLOBAL_POSITION_INT.vy,GLOBAL_POSITION_INT.vz,GLOBAL_POSITION_INT.hdg,ATTITUDE.time_boot_ms,ATTITUDE.roll,ATTITUDE.pitch,ATTITUDE.yaw,ATTITUDE.rollspeed,ATTITUDE.pitchspeed,ATTITUDE.yawspeed,VFR_HUD.airspeed,VFR_HUD.groundspeed,VFR_HUD.heading,VFR_HUD.throttle,VFR_HUD.alt,VFR_HUD.climb
1429530432.91599989,,,,,,,,,,220563,0.0107579305768,-0.0162258241326,-0.284523308277,-0.00144839135464,0.00201033428311,-0.00100164767355,,,,,,
1429530433.03900003,220564,476027873,85340978,411408,3257,-6,-2,28,34369,,,,,,,,0.433692187071,0.0647410526872,343,0,315.56640625,-0.286879897118
1429530434.04999995,,,,,,,,,,221063,0.0103201102465,-0.0154009442776,-0.285295844078,0.00326171703637,0.00114161765669,0.000220919959247,0.0,0.0946860909462,343,0,315.223175049,-0.289697468281
1429530435.37500000,,,,,,,,,,221993,0.0109468754381,-0.0173430144787,-0.286228775978,0.00100100704003,-0.000445029698312,-0.00152113474905,0.71447879076,0.0342783592641,343,0,314.794128418,-0.299096465111
1429530435.74799991,222420,476027878,85340982,411133,2982,1,-2,30,34357,,,,,,,,,,,,,
1429530436.50899982,,,,,,,,,,222923,0.00962897576392,-0.0179795604199,-0.287169992924,0.00361906317994,-0.000973800022621,-0.00134359207004,0.0,0.0460326224566,343,0,315.909637451,-0.307907760143
1429530437.27099991,,,,,,,,,,223853,0.0107485707849,-0.0177992507815,-0.288085579872,-0.0181936956942,-0.000973045825958,-0.00151391047984,0.0,0.036816265434,343,0,316.767822266,-0.304366499186
1429530437.96499991,224294,476027879,85340982,410992,2841,2,-2,30,34348,,,,,,,,,,,,,
1429530438.36699986,,,,,,,,,,224783,0.0107273440808,-0.0172659009695,-0.28876504302,0.00222902721725,-0.000272039847914,6.12903386354e-05,,,,,,
1429530438.36800003,,,,,,,,,,,,,,,,,0.283967226744,0.0266745686531,343,0,314.879943848,-0.311369240284
1429530439.49899983,,,,,,,,,,225723,0.0103177605197,-0.0165362935513,-0.289943486452,0.00205141073093,0.00130272679962,-0.00237907096744,,,,,,
1429530439.50000000,,,,,,,,,,,,,,,,,0.0,0.0583579316735,343,0,315.394775391,-0.316474586725
1429530439.86999989,226154,476027866,85340975,410758,2607,-5,-5,31,34337,,,,,,,,,,,,,
1429530440.34899998,,,,,,,,,,226643,0.00981402676553,-0.016503283754,-0.290603011847,0.00152808532584,-0.000271751487162,-0.000629776157439,0.666020214558,0.0762640014291,343,0,316.424560547,-0.320136368275
1429530441.42599988,,,,,,,,,,227583,0.00943392328918,-0.016259085387,-0.291391581297,0.00152995274402,-0.000792649458162,-0.000625069253147,0.0,0.0942806303501,343,0,317.196929932,-0.320049732924
1429530441.73000002,228015,476027859,85340965,410665,2514,-6,-7,31,34329,,,,,,,,,,,,,
1429530442.27199984,,,,,,,,,,228523,0.00932401791215,-0.0171993616968,-0.291855663061,0.00327876675874,0.00321616907604,-0.00114337541163,0.0,0.0938990488648,343,0,315.738037109,-0.311662524939
1429530443.14499998,,,,,,,,,,229453,0.0103200608864,-0.0174180138856,-0.292381227016,-0.0136465346441,0.00443236902356,0.000781122595072,0.875263810158,0.0961536988616,343,0,315.308959961,-0.308320909739
1429530443.52900004,229874,476027853,85340956,410570,2419,-5,-7,30,34324,,,,,,,,,,,,,
1429530443.95799994,,,,,,,,,,230383,0.0123692825437,-0.0167235024273,-0.292964160442,-0.00822786707431,0.000249190314207,-0.00235392991453,,,,,,
1429530443.95899987,,,,,,,,,,,,,,,,,0.327982336283,0.0812506228685,343,0,315.65222168,-0.304018765688
1429530445.05799985,,,,,,,,,,231313,0.0114746186882,-0.0176653899252,-0.293407678604,0.00486842775717,0.0061771562323,-0.00199933350086,0.0,0.0666635930538,343,0,316.510375977,-0.296470463276
1429530445.49000001,231734,476027856,85340954,410488,2338,0,-6,29,34318,,,,,,,,,,,,,
1429530446.08299994,,,,,,,,,,232243,0.0102371135727,-0.0180363841355,-0.293598681688,-0.0132747031748,-0.00289956340566,-0.000944881699979,0.0,0.0496341399848,343,0,315.56640625,-0.3032297194
1429530446.93199992,,,,,,,,,,233203,0.0125600360334,-0.0172421690077,-0.293774902821,0.00348559697159,0.00373731809668,-0.00268292892724,0.0,0.0333672091365,343,0,316.767822266,-0.305935770273
1429530447.32599998,233595,476027860,85340960,410421,2270,2,-3,30,34315,,,,,,,,,,,,,
1429530448.14599991,,,,,,,,,,234143,0.0124884145334,-0.0173774976283,-0.293954670429,-0.0111713828519,-0.0037706354633,-0.00197899993509,,,,,,
1429530448.14699984,,,,,,,,,,,,,,,,,0.0,0.03939762339,343,0,315.995452881,-0.3115876019
1429530449.02399993,,,,,,,,,,235063,0.0128207951784,-0.0170235764235,-0.293986827135,-0.00506184156984,0.00163969385903,-0.00179817527533,,,,,,
1429530449.02499986,,,,,,,,,,,,,,,,,0.0,0.0410215258598,343,0,316.596191406,-0.308008134365
1429530449.35099983,235458,476027855,85340958,410273,2122,0,-3,31,34315,,,,,,,,,,,,,
1429530450.12899995,,,,,,,,,,235993,0.0128238247707,-0.0169084127992,-0.294417619705,0.00959910266101,-0.00568655366078,0.0006511406973,0.0,0.032434400171,343,0,315.995452881,-0.313922971487
1429530451.07099986,,,,,,,,,,236933,0.012044091709,-0.0171073228121,-0.29465252161,-0.000171501451405,0.00670326780528,-0.00318224634975,0.401788711548,0.0326354391873,343,0,315.995452881,-0.316991865635
1429530451.32500005,237318,476027859,85340961,410132,1981,1,-2,31,34311,,,,,,,,,,,,,
1429530451.74899983,,,,,,,,,,237873,0.0106938332319,-0.0163276009262,-0.29471462965,0.00681307073683,0.00269142445177,-0.000558337196708,0.0,0.0208924934268,343,0,315.909637451,-0.324936836958
1429530452.98099995,,,,,,,,,,238803,0.011631785892,-0.013797800988,-0.294774889946,-0.00330986361951,-0.00323175545782,-0.00247167143971,0.0,0.0446074344218,343,0,315.137359619,-0.329387068748
1429530453.24699998,239190,476027852,85340976,409939,1788,-5,0,33,34311,,,,,,,,,,,,,
1429530453.65799999,,,,,,,,,,239743,0.0106680803001,-0.0138432336971,-0.29501080513,-0.00575204193592,-0.00201098108664,-0.000720699317753,0.0,0.0604577437043,343,0,315.995452881,-0.337658286095
1429530454.50699997,,,,,,,,,,240453,0.0108964433894,-0.0138402637094,-0.295358210802,0.000880673120264,-0.00271399831399,-0.00106490403414,0.0,0.0545518137515,343,0,315.48059082,-0.342978388071
1429530454.64800000,240600,476027854,85340977,409765,1614,-4,-2,34,34307,,,,,,,,,,,,,
1429530455.21000004,,,,,,,,,,241153,0.0109106469899,-0.0143798058853,-0.295428276062,-0.00347902765498,-0.00202156440355,-0.000536445528269,,,,,,
1429530455.21099997,,,,,,,,,,,,,,,,,0.0,0.0358913391829,343,0,315.394775391,-0.343897074461
1429530455.88800001,,,,,,,,,,241853,0.0105419391766,-0.013276184909,-0.295383870602,-0.00452049449086,-0.00201791035943,-0.00140359159559,0.0,0.0498263128102,343,0,316.081268311,-0.343897730112
1429530456.05099988,241994,476027852,85340989,409670,1519,-6,0,34,34306,,,,,,,,,,,,,
1429530456.61800003,,,,,,,,,,242563,0.0112915067002,-0.012050348334,-0.295378983021,0.00420569209382,-0.000265918497462,0.00034658703953,0.0,0.106002189219,343,0,315.56640625,-0.347163975239
1429530457.77300000,,,,,,,,,,243273,0.0105980178341,-0.0131476828828,-0.295653045177,0.00141010235529,-0.00446339324117,-0.00174434389919,0.0,0.09575419873,343,0,316.25289917,-0.34807908535
1429530457.93499994,243395,476027850,85340986,409596,1445,-8,-4,34,34305,,,,,,,,,,,,,
1429530458.45799994,,,,,,,,,,243943,0.0105788037181,-0.0133887445554,-0.295336276293,-0.00190129864495,-0.00411849236116,0.000529956072569,0.0,0.0906829535961,343,0,315.738037109,-0.338316679001
1429530458.46099997,244399,476027854,85340993,409581,1430,-5,-2,33,34306,,,,,,,,,,,,,
1429530458.46199989,,,,,,,,,,244963,0.011219587177,-0.0151988305151,-0.295685768127,0.00299133243971,5.57997846045e-05,-0.00138290598989,0.0,0.0437360517681,343,0,315.909637451,-0.334157496691
1429530458.82200003,245404,476027858,85340992,409502,1351,-3,-4,32,34305,245463,0.0112916985527,-0.0148184904829,-0.295781522989,0.000547297182493,-0.000292498851195,-0.000681862235069,0.0,0.059350527823,343,0,314.794128418,-0.330297142267
1429530458.82399988,,,,,,,,,,245963,0.0114942938089,-0.014943250455,-0.295612901449,0.00473792292178,5.36600709893e-05,-0.000155001878738,0.0,0.0582678131759,343,0,316.25289917,-0.32653093338
1429530459.80399990,246414,476027862,85340991,409507,1356,-2,-5,31,34305,246463,0.0113756004721,-0.0148722250015,-0.295839011669,0.00194841017947,0.000750629696995,-0.00119883287698,0.0,0.0557457655668,343,0,315.48059082,-0.31947401166
1429530459.81099987,,,,,,,,,,246983,0.0112851569429,-0.0152679113671,-0.295876324177,0.00299749011174,-0.000998672796413,-0.00154491048306,,,,,,
1429530459.81399989,,,,,,,,,,,,,,,,,0.0,0.0615775100887,343,0,315.909637451,-0.319361031055
1429530461.47300005,247428,476027870,85340998,409423,1272,1,-2,31,34306,247983,0.0127276461571,-0.0148678002879,-0.295574247837,0.00231002690271,-0.00152216851711,0.00108142755926,0.0,0.0324948765337,343,0,315.738037109,-0.305851787329
1429530461.47399998,248424,476027878,85341006,409410,1259,3,0,30,34307,248493,0.01284189336,-0.014780507423,-0.295387148857,0.00057027535513,0.000745657132939,0.00021353084594,0.0,0.0342146493495,343,0,315.394775391,-0.301762938499
1429530461.77199984,,,,,,,,,,249003,0.0127110211179,-0.014452422969,-0.295398414135,0.00109551905189,0.000222088536248,-0.00065587926656,0.0,0.0312999822199,343,0,314.536712646,-0.293987452984
1429530462.04699993,249424,476027881,85341010,409367,1216,0,0,29,34307,,,,,,,,,,,,,
1429530462.14599991,,,,,,,,,,249503,0.0124174896628,-0.0138728450984,-0.295333504677,-0.00344319664873,-0.000122371944599,-0.00187446270138,0.0,0.00634671235457,343,0,315.738037109,-0.295102864504
1429530462.45499992,,,,,,,,,,250003,0.0121248317882,-0.0138047831133,-0.295421540737,-0.00588961830363,0.00144692603499,-0.000824637711048,0.0,0.022306099534,343,0,316.424560547,-0.297053605318
1429530462.84299994,250450,476027890,85341009,409347,1196,2,-2,29,34308,,,,,,,,,,,,,
1429530462.86899996,,,,,,,,,,250513,0.0125103630126,-0.0145239941776,-0.295296490192,-0.000301226362353,0.00388494553044,-0.00169371347874,0.0,0.0331787243485,343,0,315.738037109,-0.29438534379
1429530463.39299989,,,,,,,,,,251023,0.0128211425617,-0.0144115472212,-0.294950515032,-0.000120921991765,0.000392918125726,-0.00081645231694,0.0,0.0341742634773,343,0,315.65222168,-0.292777568102
1429530463.80699992,251444,476027900,85341021,409338,1187,3,1,29,34310,,,,,,,,,,,,,
1429530463.93599987,,,,,,,,,,251533,0.0134586906061,-0.0145539194345,-0.294810533524,-0.00552701763809,-0.000654002942611,-0.000986570492387,,,,,,
1429530464.04199982,,,,,,,,,,,,,,,,,0.0,0.0360989905894,343,0,316.25289917,-0.290058076382
1429530464.52399993,,,,,,,,,,252033,0.0126386675984,-0.0150024993345,-0.294872373343,-0.000470029655844,-0.00118080643006,-0.00185709726065,0.0,0.0470472127199,343,0,315.223175049,-0.291179001331
1429530464.84399986,252444,476027903,85341012,409276,1125,1,-3,29,34309,,,,,,,,,,,,,
1429530464.96499991,,,,,,,,,,252533,0.0123317074031,-0.0144450413063,-0.294916838408,0.000398427248001,-0.00170074694324,0.0011123502627,0.0,0.0417191833258,343,0,316.081268311,-0.290955632925
1429530465.47799993,,,,,,,,,,253043,0.0129063632339,-0.015241923742,-0.294745951891,5.29215612914e-05,0.000912050076295,-0.000280497595668,0.0,0.0589999482036,343,0,315.995452881,-0.29069635272
1429530465.78099990,253454,476027915,85341011,409278,1127,4,-3,28,34311,,,,,,,,,,,,,
1429530465.89699984,,,,,,,,,,253553,0.0128125716001,-0.0148638505489,-0.294714093208,-0.00273953820579,-0.000308963062707,0.000944486819208,0.0,0.0612428039312,343,0,315.48059082,-0.284635782242
1429530466.47799993,,,,,,,,,,254053,0.0122190378606,-0.0145988995209,-0.294672220945,-0.00187047501095,-0.00117874215357,-0.000798515044153,,,,,,
1429530466.47899985,,,,,,,,,,,,,,,,,0.0,0.0707976147532,343,0,316.424560547,-0.28346785903
1429530466.90199995,254464,476027920,85341002,409298,1147,3,-6,27,34312,,,,,,,,,,,,,
1429530466.94700003,,,,,,,,,,254563,0.0125762755051,-0.0149237196892,-0.294473737478,-0.000297138671158,-0.000657981727272,-0.000619797967374,0.0,0.0785341337323,343,0,316.3387146,-0.277713239193
1429530467.54799986,,,,,,,,,,255063,0.0129130696878,-0.0139458337799,-0.294392287731,-0.00116422830615,-0.0039665303193,-0.00114119611681,0.0,0.0396545417607,343,0,315.308959961,-0.275254309177
1429530467.96599984,255474,476027920,85341007,409289,1138,-1,-3,27,34313,,,,,,,,,,,,,
1429530467.96700001,,,,,,,,,,255583,0.0129418969154,-0.0136322500184,-0.294263362885,0.00250135455281,-0.00221943063661,-0.00218518916517,0.0,0.0420409627259,343,0,315.308959961,-0.274861931801
1429530468.46799994,,,,,,,,,,256093,0.0131104690954,-0.0138550903648,-0.294276237488,-0.000812497455627,-0.000649973982945,-0.000785494223237,,,,,,
1429530468.53199983,,,,,,,,,,,,,,,,,0.0,0.038024507463,343,0,316.16708374,-0.269266545773
1429530469.00199986,256474,476027926,85341008,409306,1155,0,-2,26,34313,256603,0.0135528165847,-0.0139445345849,-0.294272124767,-0.000809140386991,-0.000652254093438,-0.00130532216281,0.0,0.0221289861947,343,0,316.25289917,-0.268725335598
1429530469.50199986,,,,,,,,,,257113,0.0129178557545,-0.0143835591152,-0.294033169746,-0.000287743197987,0.000916982418858,-8.0076046288e-05,-0.0,0.0333335399628,343,0,316.3387146,-0.277218937874
1429530469.82200003,257474,476027928,85341010,409222,1071,0,0,27,34316,,,,,,,,,,,,,
1429530470.31599998,,,,,,,,,,257613,0.0134869171306,-0.0144664403051,-0.293875426054,-0.000108579697553,-0.00013094919268,-0.00251968204975,0.0,0.0159022267908,343,0,315.909637451,-0.27678078413
1429530470.73599982,,,,,,,,,,258123,0.0141820162535,-0.0146649442613,-0.29359793663,0.00129164301325,-0.00030697643524,0.0011493768543,0.624904751778,0.0159460678697,343,0,315.051544189,-0.278000414371
1429530470.97199988,258484,476027935,85341016,409203,1052,0,1,27,34319,,,,,,,,,,,,,
1429530471.35299993,,,,,,,,,,258633,0.0141627704725,-0.0142555907369,-0.29346370697,0.000593108765315,0.00144052528776,-0.00181443151087,0.0,0.00678127165884,343,0,316.081268311,-0.277799516916
1429530471.83699989,,,,,,,,,,259133,0.0142529932782,-0.0139469094574,-0.293316692114,0.000245036790147,0.00144067325164,-0.00146191380918,0.0,0.0115249576047,343,0,315.909637451,-0.271235883236
1429530471.99000001,259488,476027936,85341012,409264,1113,0,-1,27,34317,,,,,,,,,,,,,
1429530471.99099994,,,,,,,,,,259653,0.0138242440298,-0.0141457309946,-0.293572634459,0.00163892866112,-0.00117832887918,-0.000588242895901,,,,,,
1429530472.17299986,,,,,,,,,,,,,,,,,0.0,0.00466019706801,343,0,314.879943848,-0.273431271315
1429530472.55499983,,,,,,,,,,260153,0.0137177510187,-0.0138315223157,-0.293460190296,0.000762096256949,0.000567397277337,-0.000935094431043,,,,,,
1429530472.55599999,,,,,,,,,,,,,,,,,0.0,0.022922905162,343,0,315.48059082,-0.273693501949
1429530472.85800004,260489,476027940,85341014,409274,1123,0,0,27,34319,,,,,,,,,,,,,
1429530473.02199984,,,,,,,,,,260653,0.0138336457312,-0.0132870245725,-0.293181031942,-0.00446907710284,0.00126872584224,-0.000232656486332,0.0,0.0240599438548,343,0,315.394775391,-0.272712081671
1429530473.71000004,,,,,,,,,,261163,0.0139512103051,-0.0129895275459,-0.293107122183,-0.00237483414821,4.57507558167e-05,-0.000928013585508,0.0,0.0258990768343,343,0,314.96572876,-0.275419443846
1429530473.80799985,261488,476027948,85341023,409253,1102,2,2,27,34321,,,,,,,,,,,,,
1429530474.05299997,,,,,,,,,,261673,0.0147788226604,-0.0142608806491,-0.292885869741,0.000250336510362,-0.000488333345857,0.000646507367492,0.0,0.0404953733087,343,0,315.738037109,-0.274041712284
1429530474.61699986,,,,,,,,,,262203,0.0141966948286,-0.0135249672458,-0.292726993561,0.00286563346162,-0.000134342932142,-0.00161893758923,0.0,0.0196253936738,343,0,316.424560547,-0.272409886122
1429530474.90599990,262504,476027953,85341024,409226,1075,2,1,27,34323,,,,,,,,,,,,,
1429530475.10999990,,,,,,,,,,262713,0.0140734063461,-0.0139354337007,-0.292709350586,-0.00132374686655,-0.000138531962875,-0.00109266396612,0.34824565053,0.0239336099476,343,0,315.48059082,-0.274854004383
1429530475.56099987,,,,,,,,,,263213,0.0141881722957,-0.0141936168075,-0.292813956738,0.0018165060319,0.000207371136639,-0.000566800124943,0.0,0.0307514928281,343,0,315.738037109,-0.273645490408
1429530475.87999988,263504,476027961,85341019,409172,1021,3,-1,27,34322,,,,,,,,,,,,,
1429530476.11899996,,,,,,,,,,263723,0.0135639766231,-0.0144014582038,-0.292771488428,0.000417538336478,0.00125090032816,-0.00265912525356,0.0,0.0486947894096,343,0,316.3387146,-0.271871954203
1429530476.68099999,,,,,,,,,,264233,0.0139335570857,-0.014348926954,-0.292469292879,-0.00341928726994,0.000901487073861,0.000485714524984,,,,,,
1429530476.68199992,,,,,,,,,,,,,,,,,0.0,0.0532885156572,343,0,315.051544189,-0.270344167948
1429530477.23199987,264520,476027969,85341019,409148,997,3,-1,27,34324,264733,0.0145421307534,-0.0141180288047,-0.292399019003,0.0033881184645,0.000379009346943,-0.00212912075222,0.284339934587,0.0467337071896,343,0,315.56640625,-0.270253419876
1429530477.61299992,,,,,,,,,,265243,0.0140430768952,-0.0135242184624,-0.291717469692,-0.00237002875656,0.000556910759769,0.00223782844841,1.1432505846,0.0276614744216,343,0,315.137359619,-0.261300086975
1429530477.94899988,265518,476027976,85341018,409219,1068,2,-2,25,34329,,,,,,,,,,,,,
1429530478.36599994,,,,,,,,,,265743,0.013991817832,-0.014038736932,-0.291419565678,0.00391306681558,0.00107733672485,-0.000901097431779,1.31332337856,0.0412255115807,343,0,315.56640625,-0.258163392544
1429530478.73699999,,,,,,,,,,266243,0.0138660026714,-0.0128105813637,-0.291128963232,-0.00603796448559,-0.0010101844091,0.000148555263877,0.0,0.0272216796875,343,0,315.308959961,-0.255790054798
1429530479.03799987,266518,476027977,85341013,409226,1075,0,-3,25,34332,,,,,,,,,,,,,
1429530479.43499994,,,,,,,,,,266753,0.0143080800772,-0.0124909877777,-0.290848433971,0.0021648122929,0.00317956227809,-0.0028156330809,,,,,,
1429530479.45899987,,,,,,,,,,,,,,,,,0.0,0.0367030054331,343,0,316.16708374,-0.254912108183
1429530480.22399998,267528,476027981,85341019,409299,1148,0,-1,24,34336,267253,0.0140810636804,-0.0130688445643,-0.290557056665,0.000771893537603,0.0010804933263,-1.99684873223e-05,0.0,0.0272494275123,343,0,315.48059082,-0.251075327396
1429530480.22499990,,,,,,,,,,267763,0.0147057343274,-0.012514446862,-0.290368229151,7.49784521759e-05,0.000559965264983,-0.000714930705726,1.57894098759,0.0288048032671,343,0,316.081268311,-0.250885605812
1429530480.91799998,,,,,,,,,,268273,0.0142601784319,-0.0122907347977,-0.289953649044,-0.00568536389619,0.00143260415643,-0.000362769700587,,,,,,
1429530480.91899991,,,,,,,,,,,,,,,,,1.12551903725,0.0410985909402,343,0,316.424560547,-0.246659293771
1429530480.91999984,268534,476027980,85341016,409408,1257,-4,-2,24,34338,,,,,,,,,,,,,
1429530481.27999997,,,,,,,,,,268773,0.0140689434484,-0.0119964955375,-0.289840370417,-0.00865271966904,-0.00135768647306,-0.000185245648026,1.82069182396,0.0617243386805,343,0,315.65222168,-0.244358003139
1429530481.63699985,,,,,,,,,,269283,0.0145034743473,-0.0122280204669,-0.2895193398,7.44710559957e-05,3.52869974449e-05,-0.00053184479475,0.743286728859,0.0626292526722,343,0,315.48059082,-0.239168450236
1429530481.95599985,269549,476027977,85341013,409463,1312,-7,-2,23,34342,,,,,,,,,,,,,
1429530482.20799994,,,,,,,,,,269783,0.0144028831273,-0.0120769208297,-0.289186626673,-0.00201973342337,0.00160501734354,-0.000703793019056,0.625266134739,0.0688646957278,343,0,315.823822021,-0.230555161834
1429530482.72300005,,,,,,,,,,270293,0.0144054442644,-0.0123328818008,-0.288910001516,-0.00044899166096,-0.001015949063,-0.000701585784554,0.0,0.0669001713395,343,0,315.995452881,-0.229772731662
1429530483.40400004,270544,476027982,85341013,409539,1388,-5,-1,22,34345,,,,,,,,,,,,,
1429530483.42899990,,,,,,,,,,270803,0.0156328082085,-0.0127538396046,-0.288473516703,-0.0034078641329,0.00159938680008,-0.000348686240613,0.0,0.0421214140952,343,0,315.65222168,-0.23153924942
1429530484.48699999,,,,,,,,,,271313,0.0159356817603,-0.0126024149358,-0.288329541683,-0.0013132286258,0.00160011078697,0.000876216217875,0.402213394642,0.0536601096392,343,0,315.823822021,-0.227205663919
1429530484.48799992,271554,476027989,85341021,409583,1432,-2,0,22,34347,,,,,,,,,,,,,
1429530484.48899984,,,,,,,,,,271813,0.0154780233279,-0.0138163464144,-0.288343369961,-0.00201302138157,0.000194442458451,0.000354185700417,,,,,,
1429530484.50300002,,,,,,,,,,,,,,,,,0.0,0.0111590484157,343,0,315.48059082,-0.221203938127
1429530484.87399983,,,,,,,,,,272323,0.0154840201139,-0.014057113789,-0.287993609905,0.00130272423849,0.00176252517849,-0.000167149119079,0.0,0.0163876581937,343,0,316.596191406,-0.217360302806
1429530485.26799989,272564,476027998,85341018,409653,1502,1,-1,21,34351,272823,0.0154665475711,-0.0145666534081,-0.287630200386,-0.000267018680461,-0.0026032445021,0.00123175512999,0.0,0.0265503637493,343,0,314.96572876,-0.209669411182
1429530485.98799992,,,,,,,,,,273323,0.0149240326136,-0.0144690712914,-0.287615418434,-9.30457317736e-05,-0.00155360996723,0.000186812132597,1.12578785419,0.021594395861,343,0,316.853637695,-0.209740102291
1429530486.05399990,273590,476028007,85341015,409675,1524,4,-3,20,34351,,,,,,,,,,,,,
1429530486.23300004,,,,,,,,,,273833,0.0151597158983,-0.0153556857258,-0.287670701742,0.00182654289529,-0.000162714859471,-0.00242923106998,0.232210874557,0.0538092628121,343,0,315.308959961,-0.202910497785
1429530486.80799985,,,,,,,,,,274333,0.0152135835961,-0.0149382492527,-0.287337332964,0.00200238521211,-0.000159138231538,-0.00050678756088,0.0,0.0405466631055,343,0,315.738037109,-0.198301315308
1429530487.41699982,274598,476028011,85341019,409703,1552,3,-1,19,34354,,,,,,,,,,,,,
1429530487.41799998,,,,,,,,,,274843,0.0154748577625,-0.0146592231467,-0.287000238895,-0.00148687639739,-0.00190223311074,0.000194515101612,0.0,0.0324455946684,343,0,315.823822021,-0.192494541407
1429530487.87599993,,,,,,,,,,275353,0.0160836465657,-0.0143315093592,-0.286728441715,0.0030548479408,-0.00120107259136,-0.00102401990443,,,,,,
1429530487.87699986,,,,,,,,,,,,,,,,,0.0,0.0265082921833,343,0,315.823822021,-0.184523776174
1429530488.31200004,275600,476028014,85341028,409747,1596,2,1,18,34357,,,,,,,,,,,,,
1429530488.31299996,,,,,,,,,,275853,0.0161215029657,-0.0145759517327,-0.286624550819,-0.00270669511519,0.00106707809027,0.000548450276256,0.0,0.0296675488353,343,0,315.738037109,-0.185342177749
1429530488.96299982,,,,,,,,,,276383,0.0164009239525,-0.0149755775928,-0.286440849304,-0.00113476417027,0.00141357956454,-0.000321799889207,0.796181082726,0.0489472076297,343,0,315.995452881,-0.176899805665
1429530489.11099982,276605,476028025,85341027,409795,1644,6,0,17,34359,,,,,,,,,,,,,
1429530489.54399991,,,,,,,,,,276883,0.0159118566662,-0.0149252517149,-0.286359190941,0.000780990114436,0.000192622188479,0.000203379429877,0.0,0.0500201322138,343,0,315.394775391,-0.177062422037
1429530489.96399999,,,,,,,,,,277393,0.0156342685223,-0.0140307946131,-0.286115139723,0.000953479495365,-0.000846491195261,0.000206031836569,0.0,0.0163415558636,343,0,315.823822021,-0.168578982353
1429530490.35099983,277604,476028019,85341024,409891,1740,0,-1,17,34360,,,,,,,,,,,,,
1429530490.36299992,,,,,,,,,,277893,0.0156015018001,-0.0135797550902,-0.286043047905,-0.00306160235777,-0.000494426873047,3.35900112987e-05,0.0,0.00753607554361,343,0,315.051544189,-0.16892644763
1429530491.04799986,,,,,,,,,,278403,0.0159549508244,-0.013374067843,-0.285858899355,-0.00166298344266,-0.00119020510465,-0.000138212926686,0.0,0.0083488766104,343,0,315.65222168,-0.164105221629
1429530491.13299990,278604,476028015,85341028,409941,1790,-3,0,16,34362,,,,,,,,,,,,,
1429530491.29099989,,,,,,,,,,278913,0.0156062208116,-0.01261151582,-0.285764455795,7.91457423475e-05,0.00143325550016,-0.000485450029373,0.0,0.0427770763636,343,0,315.051544189,-0.166216209531
1429530492.05200005,279619,476028017,85341036,409930,1779,-2,1,16,34363,279413,0.0159705039114,-0.013002872467,-0.285706788301,0.00130383588839,-0.000837550964206,0.00108807347715,0.0,0.035340577364,343,0,315.137359619,-0.166382104158
1429530492.43299985,,,,,,,,,,279923,0.0160263832659,-0.0132695473731,-0.285530358553,0.00147853395902,-0.00031538651092,0.000741088762879,0.0,0.0330665074289,343,0,315.137359619,-0.162453129888
1429530492.83399987,,,,,,,,,,280423,0.016213491559,-0.0137370955199,-0.285286933184,0.000780918868259,-0.000492591701914,-0.00100192986429,0.0,0.0209682229906,343,0,315.56640625,-0.161761805415
1429530493.11999989,280624,476028021,85341040,409954,1803,-1,1,16,34366,,,,,,,,,,,,,
1429530493.36099982,,,,,,,,,,280933,0.0163342673331,-0.0134628955275,-0.28481143713,-9.12334653549e-05,-0.00066395389149,-0.000650332309306,0.0,0.0360527224839,343,0,316.081268311,-0.159838810563
1429530494.11899996,,,,,,,,,,281443,0.0165888760239,-0.0139256427065,-0.284532248974,-0.00043882560567,-0.00153953547124,0.000573458150029,0.0,0.0321865566075,343,0,315.48059082,-0.15803425014
1429530494.12100005,281624,476028021,85341045,410043,1892,-1,2,15,34370,,,,,,,,,,,,,
1429530494.29999995,,,,,,,,,,281943,0.0161648709327,-0.0140869030729,-0.284482836723,-0.00183770735748,-0.000491716025863,-0.00082129240036,,,,,,
1429530494.63800001,,,,,,,,,,,,,,,,,0.907038271427,0.0280514284968,343,0,315.909637451,-0.163301169872
1429530494.78399992,,,,,,,,,,282443,0.0163792967796,-0.01508449018,-0.284268856049,-0.000788670091424,-0.000323240587022,5.3346157074e-05,0.0,0.0412504971027,343,0,314.96572876,-0.159508526325
1429530495.26699996,282638,476028028,85341049,410018,1867,2,2,16,34371,,,,,,,,,,,,,
1429530495.33699989,,,,,,,,,,282953,0.0159425307065,-0.0149382278323,-0.284131407738,8.21379944682e-05,0.00089999375632,-0.000294119119644,0.0,0.0369587987661,343,0,316.25289917,-0.156189888716
1429530495.91400003,,,,,,,,,,283463,0.0156748332083,-0.0155242048204,-0.284148097038,-0.000966272549704,-0.000152491265908,0.000929136760533,0.449896037579,0.0634408816695,343,0,316.424560547,-0.148489028215
1429530496.24099994,283648,476028037,85341051,410128,1977,5,1,14,34372,,,,,,,,,,,,,
1429530496.34099984,,,,,,,,,,283963,0.015517488122,-0.015068596229,-0.283986538649,0.00130229745992,0.000896227778867,-0.000291119329631,,,,,,
1429530496.71199989,,,,,,,,,,,,,,,,,0.0,0.0656478479505,343,0,316.25289917,-0.150892287493
1429530496.89499998,,,,,,,,,,284473,0.0151855312288,-0.0142338182777,-0.283931046724,0.000949885114096,-0.000495098414831,0.000233270227909,,,,,,
1429530496.90999985,,,,,,,,,,,,,,,,,0.0,0.0453212894499,343,0,315.995452881,-0.151475325227
1429530497.35299993,284658,476028039,85341047,410163,2012,3,-1,15,34373,,,,,,,,,,,,,
1429530497.35399985,,,,,,,,,,284983,0.0152380689979,-0.0136312525719,-0.28364738822,0.00129965273663,0.000903241627384,0.000235178507864,0.0,0.0367163792253,343,0,315.394775391,-0.144312486053
1429530498.09399986,,,,,,,,,,285493,0.0151774808764,-0.0135650979355,-0.283439725637,7.76994857006e-05,0.000728566548787,0.0016331654042,0.0,0.0396447628736,343,0,315.823822021,-0.141059905291
1429530498.09500003,285669,476028044,85341048,410255,2104,3,-1,14,34377,,,,,,,,,,,,,
1429530498.42299986,,,,,,,,,,286013,0.0159399732947,-0.0132494829595,-0.282841593027,0.00147743721027,3.14774806611e-05,-0.000807517208159,0.0,0.0367825888097,343,0,315.65222168,-0.141638353467
1429530499.05999994,,,,,,,,,,286513,0.016004294157,-0.0132582010701,-0.282653003931,-0.000268251518719,0.00107866851613,-0.000806016847491,0.0,0.0384655930102,343,0,315.738037109,-0.143132299185
1429530499.10999990,286674,476028053,85341056,410270,2119,5,1,14,34380,,,,,,,,,,,,,
1429530499.45499992,,,,,,,,,,287013,0.0162736531347,-0.0132696544752,-0.282448768616,-0.00148797396105,0.000205415941309,-0.0011530360207,0.0,0.0462973751128,343,0,315.738037109,-0.140662163496
1429530499.90400004,,,,,,,,,,287513,0.0164586491883,-0.0129970507696,-0.28237336874,-0.00148747349158,0.000379966513719,0.00129200238734,,,,,,
1429530500.23399997,287684,476028055,85341057,410299,2148,2,0,14,34382,,,,,,,,0.0,0.0475531257689,343,0,315.909637451,-0.143086522818
1429530500.59699988,,,,,,,,,,288013,0.0168674737215,-0.0125013580546,-0.282158792019,8.54719837662e-05,-0.00188635592349,-0.000276347622275,0.0,0.0449896939099,343,0,315.56640625,-0.146464765072
1429530501.23399997,288688,476028062,85341065,410345,2194,4,3,14,34384,288513,0.0167500041425,-0.0123430304229,-0.282120168209,0.000607785070315,-0.000315893208608,-0.00219469331205,0.0,0.0425187163055,343,0,316.682006836,-0.143189713359
1429530501.59899998,,,,,,,,,,289023,0.0166751649231,-0.0121760712937,-0.281723499298,-0.000962318677921,3.45593434758e-05,0.000251030549407,0.0,0.0424401015043,343,0,316.510375977,-0.139458999038
1429530501.97199988,,,,,,,,,,289543,0.0164169035852,-0.0119984960184,-0.281453222036,0.000606754678302,0.000908750109375,-0.000445345416665,0.0,0.0277161113918,343,0,315.909637451,-0.13439142704
1429530502.06799984,289688,476028063,85341067,410421,2270,1,2,13,34387,,,,,,,,,,,,,
1429530502.75000000,,,,,,,,,,290043,0.0166242234409,-0.0115614710376,-0.281164973974,0.000957649550401,-0.000311795913149,-0.00114137120545,0.0,0.0365062579513,343,0,316.510375977,-0.134231224656
1429530503.16899991,,,,,,,,,,290543,0.0167852528393,-0.0113715603948,-0.280982136726,-0.000962385849562,-0.000834966718685,-0.000266917049885,,,,,,
1429530503.20099998,290698,476028066,85341073,410407,2256,0,4,12,34390,,,,,,,,0.0,0.0420667529106,343,0,316.16708374,-0.128291100264
1429530503.66999984,,,,,,,,,,291053,0.0166193954647,-0.0118641052395,-0.280777335167,0.000258534913883,-0.000315705081448,-0.000789195299149,0.0,0.0395979508758,343,0,315.48059082,-0.129460662603
1429530504.03900003,,,,,,,,,,291563,0.016576487571,-0.0128123993054,-0.28090903163,0.000256488652667,0.000375811068807,-0.00166121125221,0.0,0.0467015728354,343,0,315.65222168,-0.129600852728
1429530504.06799984,291708,476028075,85341069,410413,2262,3,1,12,34391,,,,,,,,,,,,,
1429530504.52999997,,,,,,,,,,292073,0.0170232504606,-0.0125946449116,-0.28054279089,0.00148019287735,0.000901224848349,0.000435299240053,0.0,0.0452809482813,343,0,315.308959961,-0.124355897307
1429530505.28199983,292708,476028084,85341062,410426,2275,6,-1,12,34392,292583,0.0160977449268,-0.0134829981253,-0.28056961298,-9.6805539215e-05,-0.000501007249113,-0.000611725263298,0.0,0.0625261068344,343,0,314.879943848,-0.126369774342
1429530505.41699982,,,,,,,,,,293083,0.0156759675592,-0.0129399308935,-0.280523449183,0.00147052039392,2.63014226221e-05,-0.000785391777754,,,,,,
1429530505.77399993,,,,,,,,,,,,,,,,,0.0,0.0494726076722,343,0,315.823822021,-0.123576179147
1429530505.97499990,,,,,,,,,,293583,0.0164624955505,-0.0127248503268,-0.280213654041,0.00164807983674,0.00159680645447,8.92505049706e-05,,,,,,
1429530506.09200001,,,,,,,,,,,,,,,,,0.667411506176,0.0493704788387,343,0,315.56640625,-0.118895150721
1429530506.10699987,293708,476028087,85341058,410530,2379,4,-1,11,34394,,,,,,,,,,,,,
1429530506.67100000,,,,,,,,,,294083,0.0164624080062,-0.0128190359101,-0.280232727528,0.00182111840695,-0.000847147486638,-0.00200400128961,,,,,,
1429530506.67199993,,,,,,,,,,,,,,,,,0.569155871868,0.0532681979239,343,0,315.137359619,-0.118249587715
1429530507.39999986,294718,476028088,85341051,410564,2413,2,-2,11,34395,294603,0.0164141692221,-0.0122392699122,-0.280084729195,7.46350851841e-05,-0.00154164829291,-0.00025730393827,0.0,0.0342062078416,343,0,316.16708374,-0.11372256279
1429530507.47300005,,,,,,,,,,295103,0.0160819869488,-0.0130574954674,-0.279744952917,-0.0013228590833,-0.00102343293838,0.000267162919044,,,,,,
1429530507.50600004,,,,,,,,,,,,,,,,,0.0,0.0606706775725,343,0,315.823822021,-0.114205658436
1429530507.95700002,,,,,,,,,,295613,0.0165702179074,-0.0130122220144,-0.2794893682,-0.00184372474905,-0.00084755232092,9.44444909692e-05,0.0,0.0503516867757,343,0,315.909637451,-0.107316926122
1429530508.04600000,295724,476028096,85341045,410611,2460,4,-2,10,34398,,,,,,,,,,,,,
1429530508.80799985,,,,,,,,,,296123,0.0172692425549,-0.0125119248405,-0.279013246298,0.00182581879199,0.000551829463802,-0.00112490728498,,,,,,
1429530508.80900002,,,,,,,,,,,,,,,,,0.0,0.0359663851559,344,0,316.510375977,-0.100880950689
1429530509.12599993,,,,,,,,,,296623,0.0168078839779,-0.012439949438,-0.278867632151,0.000248853466474,0.000901889754459,0.000271735712886,0.0,0.0346879325807,344,0,315.65222168,-0.0952033698559
1429530509.20000005,296724,476028096,85341042,410701,2550,2,-2,9,34402,,,,,,,,,,,,,
1429530509.56099987,,,,,,,,,,297123,0.0160836912692,-0.0124757392332,-0.278747469187,-0.000452075706562,-0.00049468287034,0.000970718450844,0.0,0.0439880378544,344,0,316.25289917,-0.0906848758459
1429530510.04199982,,,,,,,,,,297633,0.0162257105112,-0.0120704518631,-0.278478980064,0.000596270023379,-0.000665898725856,-7.48801976442e-05,0.0,0.0322212204337,344,0,315.394775391,-0.0858789756894
1429530510.12199998,297728,476028094,85341036,410759,2608,0,-3,8,34404,,,,,,,,,,,,,
1429530510.47499990,,,,,,,,,,298143,0.0167380683124,-0.0119550870731,-0.278090894222,-0.00131979282014,0.000556124257855,-0.000596419908106,,,,,,
1429530510.57099986,,,,,,,,,,,,,,,,,0.0,0.015926329419,344,0,316.424560547,-0.079961694777
1429530511.27099991,,,,,,,,,,298653,0.017257777974,-0.0117733515799,-0.277734845877,7.89884361438e-05,0.00038166414015,-0.000769002363086,,,,,,
1429530511.27199984,298734,476028096,85341040,410899,2748,0,0,7,34408,,,,,,,,0.0,0.00259499740787,344,0,315.738037109,-0.0774931684136
1429530511.65999985,,,,,,,,,,299153,0.0173445437104,-0.0119782453403,-0.277383238077,-0.00114297471009,3.12466872856e-05,0.00132659077644,0.0,0.0101696951315,344,0,316.682006836,-0.0803348273039
1429530512.09599996,,,,,,,,,,299663,0.0174374151975,-0.0120577886701,-0.277110129595,0.000951656023972,-0.00154021079652,-0.00111592002213,0.0,0.0116874193773,344,0,316.767822266,-0.0744152665138
1429530512.19499993,299749,476028099,85341038,410945,2794,1,0,7,34411,,,,,,,,,,,,,
1429530512.57799983,,,,,,,,,,300173,0.0175346899778,-0.0123628089204,-0.276923120022,0.00165087776259,-0.00119242584333,-0.000416483730078,0.0,0.0194263104349,344,0,316.424560547,-0.0692781656981
1429530513.43999982,300748,476028105,85341038,410972,2821,2,1,6,34413,300683,0.0177205167711,-0.0128294117749,-0.276976585388,0.000602666288614,-0.00136921578087,0.000108019448817,0.0,0.0285091008991,344,0,315.738037109,-0.0687556639314
1429530513.79999995,,,,,,,,,,301183,0.0177506096661,-0.01290462818,-0.276836454868,-0.000967605796177,-0.000496353604831,0.000807439908385,0.0,0.0395159050822,344,0,315.223175049,-0.0683279260993
1429530514.22899985,301744,476028111,85341042,410957,2806,4,3,6,34414,301693,0.018242130056,-0.0131554706022,-0.276615351439,-0.000791639904492,-0.000672837079037,0.000983471982181,0.0,0.0581687241793,344,0,316.081268311,-0.0671353414655
1429530514.60899997,,,,,,,,,,302203,0.0177431255579,-0.0127432048321,-0.276311308146,-0.00114232837223,-0.00031919660978,0.00150814000517,0.0,0.0511218048632,344,0,314.96572876,-0.0697550103068
1429530515.54399991,302758,476028106,85341043,410980,2829,0,3,6,34418,302703,0.0173173751682,-0.0125290397555,-0.276147574186,-0.00184432673268,0.00160327763297,0.00203231535852,0.0,0.036929693073,344,0,315.738037109,-0.0664693564177
1429530515.89800000,,,,,,,,,,303203,0.0169371310622,-0.0117217246443,-0.276112735271,0.000246984651312,-0.00100970466156,-0.00163196865469,0.0,0.0411586090922,344,0,316.25289917,-0.0585345700383
1429530516.33999991,303758,476028099,85341048,411098,2947,-2,5,5,34419,303703,0.017068695277,-0.0114535493776,-0.275805294514,-0.00184618332423,0.000386734434869,-0.000583427026868,0.0,0.055805850774,344,0,315.56640625,-0.0542004108429
1429530516.55599999,,,,,,,,,,304213,0.0171542204916,-0.0123921940103,-0.275790393353,0.00513377599418,0.00194986036513,0.000115028582513,,,,,,
1429530516.58099985,,,,,,,,,,,,,,,,,0.0,0.0391444340348,344,0,315.823822021,-0.0510692298412
1429530517.34399986,,,,,,,,,,304723,0.0166977141052,-0.0120102055371,-0.275977164507,-0.000454032444395,0.00125429360196,0.00185918062925,,,,,,
1429530517.34500003,,,,,,,,,,,,,,,,,0.0,0.0350746288896,344,0,315.48059082,-0.0515292920172
1429530517.66599989,304754,476028101,85341045,411152,3001,0,3,5,34419,,,,,,,,,,,,,
1429530517.66799998,,,,,,,,,,305233,0.0168526619673,-0.0122095122933,-0.275879442692,0.00163987220731,0.00160141242668,-0.000932798720896,0.0,0.0319139659405,344,0,316.081268311,-0.0499368570745
1429530518.16699982,,,,,,,,,,305733,0.0164595413953,-0.0121220136061,-0.275638669729,-0.000106999679701,-0.00118997856043,0.00168588291854,,,,,,
1429530518.45899987,305754,476028100,85341046,411206,3055,-1,2,4,34420,,,,,,,,0.0,0.0300696305931,344,0,316.424560547,-0.0491269752383
1429530518.75199986,,,,,,,,,,306233,0.0165249239653,-0.0122189084068,-0.275658041239,-0.000983080244623,0.000553122488782,0.00220949761569,0.0,0.0113225514069,344,0,315.995452881,-0.0494233109057
1429530519.09399986,,,,,,,,,,306753,0.0160374362022,-0.0125294672325,-0.275562912226,-0.00343002378941,-0.00276474095881,-5.94006851315e-05,0.0,0.0118594849482,344,0,316.424560547,-0.0486052595079
1429530519.47899985,306789,476028103,85341037,411280,3129,1,0,4,34421,,,,,,,,,,,,,
1429530519.80200005,,,,,,,,,,307263,0.0157827269286,-0.0125332782045,-0.275010257959,0.00145654613152,0.000375893258024,-5.84926456213e-05,0.0,0.0183710772544,344,0,316.596191406,-0.0386292859912
1429530520.16799998,,,,,,,,,,307763,0.0154844010249,-0.0121889524162,-0.274984389544,0.00127895071637,0.0015994530404,-0.00180385541171,0.0,0.0385338701308,344,0,316.939453125,-0.0423225797713
1429530520.16899991,307792,476028099,85341028,411442,3291,-1,-3,4,34424,,,,,,,,,,,,,
1429530520.73399997,,,,,,,,,,308273,0.0159580055624,-0.0131015880033,-0.274755239487,0.00267705833539,-0.000850113399792,-5.78332692385e-05,0.0,0.0384048894048,344,0,315.823822021,-0.0373597703874
1429530521.22899985,,,,,,,,,,308783,0.0165655948222,-0.013465154916,-0.274308204651,0.00390402972698,-0.000329979055095,-0.000580079853535,0.0,0.042960010469,344,0,315.308959961,-0.0398406200111
1429530521.28099990,308800,476028106,85341029,411522,3371,3,-1,4,34428,,,,,,,,,,,,,
1429530521.62399983,,,,,,,,,,309293,0.0158055145293,-0.0135417142883,-0.274314463139,0.00617139460519,0.00123927253298,0.000118178315461,0.0,0.0578266791999,344,0,316.853637695,-0.0388765633106
1429530522.29799986,,,,,,,,,,309793,0.0162619277835,-0.0127045819536,-0.274208605289,-0.000809991557617,-0.00119934300892,0.00029322784394,,,,,,
1429530522.29900002,,,,,,,,,,,,,,,,,0.0,0.0357802063227,344,0,316.424560547,-0.0422024354339
1429530522.33899999,309804,476028106,85341025,411512,3361,2,-2,4,34428,,,,,,,,,,,,,
1429530522.67599988,,,,,,,,,,310313,0.0164501462132,-0.0128386383876,-0.27410030365,0.00355359353125,-0.000851475691888,0.000119348056614,0.0,0.0424267202616,344,0,315.995452881,-0.0445841364563
1429530523.29600000,,,,,,,,,,310813,0.0161046702415,-0.0118942530826,-0.273925065994,-0.000813602935523,0.00072637561243,-0.000404151156545,,,,,,
1429530523.32799983,,,,,,,,,,,,,,,,,0.0,0.03482574597,344,0,315.738037109,-0.0435406789184
1429530523.35500002,310818,476028100,85341020,411529,3378,-1,-3,4,34430,,,,,,,,,,,,,
1429530523.72700000,,,,,,,,,,311313,0.0168673116714,-0.0112040173262,-0.273865640163,0.00250287214294,-0.000143187760841,-0.000752347521484,0.0,0.0409176014364,344,0,317.025299072,-0.0413384139538
1429530524.14100003,,,,,,,,,,311813,0.0165012925863,-0.0120217632502,-0.273862630129,0.00302567053586,0.00246872054413,-0.0011014919728,,,,,,
1429530524.43400002,311814,476028100,85341014,411617,3466,0,-4,3,34430,,,,,,,,0.0,0.0413526929915,344,0,316.25289917,-0.0346875675023
1429530524.80900002,,,,,,,,,,312313,0.016759712249,-0.0110181346536,-0.273886203766,-0.00255985092372,-0.00049281027168,-0.00197368301451,0.0,0.048264477402,344,0,315.65222168,-0.0316336452961
1429530525.16799998,,,,,,,,,,312813,0.0166526511312,-0.0107426382601,-0.273921221495,0.00180631736293,3.21494298987e-05,0.00134364701807,0.0,0.0466939471662,344,0,316.596191406,-0.0328577235341
1429530525.29600000,312824,476028091,85341016,411631,3480,-4,-1,3,34430,,,,,,,,,,,,,
1429530525.84500003,,,,,,,,,,313323,0.0172351319343,-0.011513473466,-0.273943156004,0.00390305230394,0.00020208756905,-0.00144801661372,0.0,0.0248861592263,344,0,315.738037109,-0.0294869020581
1429530526.24199986,,,,,,,,,,313823,0.0176669340581,-0.0112433154136,-0.274314671755,-0.000806982745416,0.000726627884433,-0.00109763350338,0.0,0.0337124206126,344,0,315.48059082,-0.0300757475197
1429530526.55299997,313824,476028091,85341021,411734,3583,-3,1,3,34428,,,,,,,,,,,,,
1429530526.89499998,,,,,,,,,,314333,0.0173693783581,-0.0110635831952,-0.274378716946,-0.00133262656163,-0.00119107821956,0.000299249775708,0.0,0.0536279119551,344,0,316.853637695,-0.0274888984859
1429530527.24600005,314828,476028084,85341018,411818,3667,-4,0,2,34426,314843,0.0170174837112,-0.0113711701706,-0.274595826864,-0.000987106235698,-0.000320354592986,-0.000572967343032,0.0,0.049736879766,344,0,316.081268311,-0.0256523303688
1429530527.96599984,,,,,,,,,,315343,0.0167699474841,-0.0116417622194,-0.274704873562,0.000235323561355,0.000725458725356,0.000823997892439,0.0,0.0436445847154,344,0,315.909637451,-0.0236141961068
1429530528.29999995,315838,476028083,85341023,411922,3771,-3,3,2,34426,315843,0.0170869547874,-0.0117707531899,-0.274696528912,-0.000809572404251,-0.000148606428411,-0.000222202390432,0.0,0.0440693162382,344,0,316.510375977,-0.0209712795913
1429530528.99899983,,,,,,,,,,316363,0.0173060931265,-0.0119279064238,-0.274901092052,0.00128403515555,0.000724232697394,-4.70550730824e-05,0.0,0.0487813092768,344,0,315.995452881,-0.014667131938
1429530529.28799987,316848,476028076,85341025,412048,3897,-5,3,1,34424,,,,,,,,,,,,,
1429530529.28900003,,,,,,,,,,316863,0.0168992634863,-0.0117778275162,-0.275004655123,-0.00063750060508,-0.000670078326948,-0.00057050678879,0.0,0.0613809302449,344,0,315.995452881,-0.0135379154235
1429530529.76900005,,,,,,,,,,317363,0.0162585116923,-0.0124933747575,-0.275322198868,-0.00483129732311,0.00141957006417,-0.000745432451367,0.0,0.0359491556883,344,0,316.3387146,-0.0136829949915
1429530530.43400002,317854,476028074,85341017,412079,3928,-4,0,1,34421,317873,0.0158856157213,-0.0123446667567,-0.275462925434,-0.00396042969078,0.000198154884856,-0.000396110117435,0.0,0.0404440872371,344,0,316.25289917,-0.0148102836683
1429530530.83200002,,,,,,,,,,318383,0.0157405752689,-0.0127559406683,-0.275510132313,0.000402083795052,-0.000153253902681,-0.00057028234005,0.0,0.0314200818539,344,0,315.137359619,-0.0155581803992
1429530531.24899983,318854,476028073,85341016,412136,3985,-1,0,1,34421,,,,,,,,,,,,,
1429530531.38800001,,,,,,,,,,318883,0.0158411674201,-0.0127317225561,-0.27553793788,-0.00500692054629,0.00124170864001,0.00152478553355,0.0,0.0201224107295,344,0,316.510375977,-0.0147552918643
1429530531.73300004,,,,,,,,,,319393,0.0165289603174,-0.0132468836382,-0.275511354208,-0.00255747069605,0.00228385673836,0.000304526649415,0.0,0.0265125501901,344,0,315.995452881,-0.0110424468294
1429530532.32900000,319854,476028076,85341021,412244,4093,0,1,0,34420,319893,0.0163172464818,-0.0127866603434,-0.275746017694,0.000232449354371,-0.000157809932716,-0.00126609951258,0.0,0.0137992026284,344,0,316.25289917,-0.0024230631534
1429530532.95199990,,,,,,,,,,320403,0.0156746953726,-0.0126519091427,-0.275869905949,0.00354480231181,0.00036484550219,0.000479207374156,0.0,0.0163188222796,344,0,316.596191406,-0.00273953075521
1429530533.27999997,320854,476028075,85341014,412308,4157,0,-2,0,34419,,,,,,,,,,,,,
1429530533.32200003,,,,,,,,,,320903,0.0153978951275,-0.0125102195889,-0.275826632977,0.00197186716832,0.000888950307854,0.000479413196445,,,,,,
1429530533.35099983,,,,,,,,,,,,,,,,,0.0,0.0237420760095,344,0,316.3387146,-0.0020862724632
1429530533.80299997,,,,,,,,,,321413,0.0160078760237,-0.0114135947078,-0.275979727507,0.00110095832497,-0.000327928515617,-0.000217731110752,0.0,0.0114400014281,344,0,316.767822266,-0.00347483041696
1429530534.34699988,321868,476028072,85341016,412352,4201,0,-1,0,34418,321923,0.0160787180066,-0.0115734813735,-0.275993525982,0.000402151315939,-0.000154897104949,-0.00161362066865,0.0,0.0124863022938,344,0,315.995452881,-0.00343229644932
1429530535.09099984,,,,,,,,,,322433,0.0159497372806,-0.0118684032932,-0.276196539402,0.000924954540096,0.000541121175047,0.0006556622684,0.0,0.0202422440052,344,0,315.909637451,-0.00545128900558
1429530535.40100002,322878,476028072,85341014,412379,4228,0,-1,0,34417,322933,0.0159227568656,-0.0113949431106,-0.276145160198,0.000402505043894,0.000367366534192,0.000482084229589,0.0,0.0136986207217,344,0,315.909637451,0.000390316883568
1429530535.86999989,,,,,,,,,,323433,0.0158354844898,-0.0107793491334,-0.276137560606,-0.000819681677967,-0.00207121158019,-0.00161149632186,0.0,0.031117124483,344,0,317.196929932,0.00358285638504
1429530536.47000003,323889,476028061,85341016,412507,4356,-5,0,0,34417,323943,0.01591880247,-0.0100978091359,-0.276155531406,0.000227870157687,-0.00119560281746,0.000483975745738,,,,,,
1429530536.47099996,,,,,,,,,,,,,,,,,0.0,0.0522084571421,344,0,315.909637451,0.00876905024052
1429530536.83999991,,,,,,,,,,324443,0.0158771555871,-0.0111273508519,-0.276031523943,-0.00151737767737,0.0015898544807,0.000309985131025,0.0,0.0289984289557,344,0,316.424560547,0.00198631361127
1429530537.50399995,324898,476028063,85341016,412509,4358,-1,0,0,34417,324953,0.0162484627217,-0.0112584205344,-0.276100695133,0.000404922466259,0.000890626513865,0.000134874135256,0.0,0.020209999755,344,0,316.853637695,-0.00197348301299
1429530537.80900002,,,,,,,,,,325463,0.0160101819783,-0.011380083859,-0.276287525892,0.000926974811591,0.00193551927805,-0.00178475119174,0.0,0.0181349795312,344,0,315.823822021,-0.00921969488263
1429530538.25499988,325898,476028063,85341015,412489,4338,-1,0,1,34418,,,,,,,,,,,,,
1429530538.59299994,,,,,,,,,,325963,0.0163949448615,-0.0114223966375,-0.276126265526,0.00162703706883,0.000189567334019,-3.82643193007e-05,,,,,,
1429530538.59399986,,,,,,,,,,,,,,,,,0.0,0.0120772505179,344,0,316.25289917,-0.0101963635534
1429530538.90899992,,,,,,,,,,326463,0.0161783117801,-0.0120958257467,-0.275923103094,-0.00221367017366,0.000534295104444,-0.000561564229429,0.0,0.0154043659568,344,0,316.3387146,-0.0050729745999
1429530539.65999985,326908,476028066,85341013,412615,4464,2,-1,0,34420,326973,0.0160182230175,-0.0125901168212,-0.275655120611,-0.00256118457764,-0.00103963667061,0.000311966985464,0.0,0.0287030562758,344,0,316.081268311,-0.00403561908752
1429530539.88399982,,,,,,,,,,327473,0.0163001399487,-0.0122387288138,-0.275401741266,0.000755618093535,0.00140453909989,-0.000210922211409,0.0,0.02464848198,344,0,316.939453125,0.00296310265549
1429530540.34299994,327914,476028067,85341011,412680,4529,3,-1,0,34422,327993,0.0161880161613,-0.0125490063801,-0.27525177598,0.000580473337322,-0.00103991897777,-0.000908464193344,,,,,,
1429530540.69499993,,,,,,,,,,,,,,,,,0.0,0.0331718996167,344,0,315.48059082,0.000582303153351
1429530540.99699998,,,,,,,,,,328503,0.0166452042758,-0.0119624696672,-0.274809807539,5.97504840698e-05,0.00210582534783,-0.00108177121729,0.0,0.0125049715862,344,0,315.909637451,-0.00182984338608
1429530541.47899985,328930,476028060,85341018,412701,4550,0,1,0,34426,,,,,,,,,,,,,
1429530541.48000002,,,,,,,,,,329003,0.0168871525675,-0.0118353003636,-0.274582803249,6.0920137912e-05,-0.000511079677381,-3.35779041052e-05,0.0,0.018668724224,344,0,315.56640625,0.000170376340975
1429530541.84800005,,,,,,,,,,329513,0.016303692013,-0.0115740364417,-0.274281322956,0.000755913089961,-0.000857737730257,-0.000906072556973,,,,,,
1429530541.92299986,,,,,,,,,,,,,,,,,0.0,0.0213642120361,344,0,315.909637451,0.00200582877733
1429530542.29600000,329938,476028053,85341022,412764,4613,-2,3,0,34429,,,,,,,,,,,,,
1429530542.41400003,,,,,,,,,,330023,0.0166326966137,-0.0111633781344,-0.274059295654,0.00023483284167,-0.000156596535817,0.00118954107165,,,,,,
1429530542.41499996,,,,,,,,,,,,,,,,,0.0,0.0515750199556,344,0,316.3387146,0.0018436658429
1429530543.16400003,,,,,,,,,,330533,0.0167230479419,-0.0114965355024,-0.274085640907,0.000758829293773,0.000889927265234,-0.000729748979211,0.0,0.0602956563234,344,0,315.909637451,-0.00147564953659
1429530543.28199983,330938,476028047,85341025,412817,4666,-2,4,0,34429,,,,,,,,,,,,,
1429530543.60200000,,,,,,,,,,331053,0.0166410263628,-0.012568664737,-0.274092137814,0.000583306362387,1.04131759144e-05,0.00153913721442,0.0,0.0448869057,344,0,315.65222168,-0.00163460755721
1429530543.91799998,,,,,,,,,,331573,0.0167208444327,-0.0128533635288,-0.274110883474,-0.000639057427179,-0.000515442690812,-0.000729370862246,0.0,0.0471252389252,344,0,316.682006836,0.00255241198465
1429530544.37399983,331944,476028054,85341030,412931,4780,3,5,0,34430,,,,,,,,,,,,,
1429530544.41599989,,,,,,,,,,332073,0.0173348486423,-0.0134450569749,-0.273724704981,-0.000461385818198,0.000352716073394,0.00311131123453,0.0,0.0738826021552,344,0,316.16708374,0.00393208721653
1429530545.27999997,,,,,,,,,,332593,0.0168854035437,-0.0125600947067,-0.273582816124,-0.00151117308997,-0.000514613289852,-0.000553625635803,0.0,0.0684393718839,344,0,316.424560547,0.00450442312285
1429530545.28299999,332954,476028046,85341035,413029,4878,0,5,0,34432,,,,,,,,,,,,,
1429530545.71899986,,,,,,,,,,333103,0.0166004989296,-0.011741402559,-0.273410409689,0.00057953572832,0.00140988873318,-2.99289822578e-05,0.0,0.0611735321581,344,0,316.16708374,0.00113629177213
1429530546.01799989,,,,,,,,,,333603,0.0157450959086,-0.0112576056272,-0.273528516293,-0.00204473058693,0.000886423455086,0.000667293556035,0.0,0.0403703413904,344,0,315.56640625,0.00238754646853
1429530546.29299998,333958,476028041,85341032,413042,4891,-1,2,0,34433,,,,,,,,,,,,,
1429530546.54600000,,,,,,,,,,334123,0.0163204502314,-0.0119500728324,-0.273451000452,0.00127418269403,-0.000340698112268,-0.000379387289286,0.0,0.0343516431749,344,0,316.853637695,7.04584817868e-06
1429530547.39999986,,,,,,,,,,334633,0.0160453878343,-0.0118628758937,-0.273474246264,-0.00152054906357,-0.000341310107615,0.000667747110128,0.164448544383,0.0223388615996,344,0,315.909637451,0.00581880332902
1429530547.40100002,334958,476028042,85341032,413092,4941,0,2,0,34433,,,,,,,,,,,,,
1429530547.45499992,,,,,,,,,,335133,0.0162854734808,-0.0114961815998,-0.273505449295,-0.000126184808323,-0.000339843216352,0.000144340097904,,,,,,
1429530547.50300002,,,,,,,,,,,,,,,,,0.0,0.0241094958037,344,0,315.909637451,0.00604023179039
1429530548.13899994,,,,,,,,,,335643,0.0161664504558,-0.0113892313093,-0.27342954278,-0.000128291227156,0.000355674361344,0.00223866011947,0.0,0.0149168949574,344,0,315.823822021,0.00889102835208
1429530548.36399984,335968,476028043,85341024,413201,5050,0,0,-1,34433,,,,,,,,,,,,,
1429530548.50399995,,,,,,,,,,336153,0.0158518198878,-0.012392048724,-0.273307740688,-0.00117705122102,0.00191789097153,-0.000728937797248,,,,,,
1429530548.58799982,,,,,,,,,,,,,,,,,0.0,0.0263134539127,344,0,316.510375977,0.0124778077006
1429530549.19599986,,,,,,,,,,336653,0.0160192288458,-0.0121007459238,-0.273044764996,4.44901525043e-05,0.000174871121999,0.000667911022902,0.0,0.0178322978318,344,0,316.3387146,0.0170600637794
1429530549.51699996,336978,476028042,85341023,413265,5114,0,0,-1,34435,,,,,,,,,,,,,
1429530549.52099991,,,,,,,,,,337153,0.0163840465248,-0.0118791619316,-0.273180425167,-0.00344370864332,0.00035056337947,-0.00020398478955,,,,,,
1429530549.55699992,,,,,,,,,,,,,,,,,0.0,0.00130966410507,344,0,316.3387146,0.0171047151089
1429530550.28399992,,,,,,,,,,337663,0.0163878686726,-0.0113391177729,-0.272957295179,0.00179313926492,0.000352638016921,0.000843829475343,0.0,0.0140692703426,344,0,316.25289917,0.0199187602848
1429530550.35599995,337991,476028035,85341026,413351,5200,-2,1,-2,34436,,,,,,,,,,,,,
1429530550.57299995,,,,,,,,,,338183,0.0167149957269,-0.0105917518958,-0.272932142019,0.000223203329369,0.00157706672326,0.00014641135931,0.0,0.0380562096834,344,0,315.909637451,0.0245383512229
1429530551.64199996,,,,,,,,,,338693,0.0171855576336,-0.0102407764643,-0.273009985685,5.19991153851e-05,0.0015760269016,-0.000550715252757,0.0,0.0540258847177,344,0,316.25289917,0.034220084548
1429530551.64299989,339026,476028035,85341030,413492,5341,-2,3,-3,34436,,,,,,,,,,,,,
1429530551.64400005,,,,,,,,,,339203,0.0173079669476,-0.0110062537715,-0.272858887911,0.00179612450302,-0.00122234399896,-0.00072503183037,0.0,0.0409399047494,344,0,316.939453125,0.0364398770034
1429530552.07799983,,,,,,,,,,339713,0.0172573719174,-0.0107369590551,-0.272840857506,0.00179447454866,-0.000872380973306,-0.000200974754989,0.0,0.0512523390353,344,0,315.48059082,0.035258565098
1429530552.44199991,340018,476028031,85341031,413528,5377,-4,3,-3,34436,,,,,,,,,,,,,
1429530552.63800001,,,,,,,,,,340223,0.0169950332493,-0.009985354729,-0.272882848978,0.000744882097933,0.00139925279655,0.000148240476847,,,,,,
1429530552.65299988,,,,,,,,,,,,,,,,,0.0,0.0696024373174,344,0,316.510375977,0.0358949191868
1429530553.45499992,,,,,,,,,,340723,0.0172195360065,-0.0102793453261,-0.272674947977,-0.000126163038658,-0.000871852738783,0.000847375020385,0.0,0.0732395127416,344,0,316.510375977,0.0396447107196
1429530553.45599985,341024,476028029,85341038,413611,5460,-3,5,-3,34437,,,,,,,,,,,,,
1429530553.76099992,,,,,,,,,,341233,0.0172953251749,-0.0109307691455,-0.272573143244,4.89165249746e-05,0.000345174397808,-0.000722924247384,0.0,0.0646261647344,344,0,315.823822021,0.0351762212813
1429530554.17899990,,,,,,,,,,341733,0.0172723289579,-0.0111977737397,-0.272540599108,-0.000475843495224,-0.00105420034379,0.000847875140607,0.0,0.0581143461168,344,0,315.995452881,0.0336029864848
1429530554.50600004,342040,476028030,85341035,413657,5506,-1,3,-3,34437,,,,,,,,,,,,,
1429530554.57799983,,,,,,,,,,342243,0.0168533809483,-0.0117278452963,-0.272657334805,0.000916151097044,0.00121072493494,0.000672691501677,,,,,,
1429530554.57900000,,,,,,,,,,,,,,,,,0.0,0.0304356385022,344,0,315.909637451,0.0365578942001
1429530555.12500000,,,,,,,,,,342743,0.0169700030237,-0.011968286708,-0.272626757622,0.000913000199944,0.00103605678305,0.00137080717832,0.0,0.0231601819396,344,0,315.995452881,0.0406021289527
1429530555.56399989,343048,476028029,85341031,413808,5657,0,1,-4,34439,,,,,,,,,,,,,
1429530555.89800000,,,,,,,,,,343253,0.0172283407301,-0.012343917042,-0.272403508425,-0.000831350393128,0.000335218792316,0.0010223640129,0.0,0.0164067819715,344,0,316.3387146,0.0416649319232
1429530556.32799983,,,,,,,,,,343753,0.016953645274,-0.0124469436705,-0.272104740143,0.00056163512636,0.00120730267372,0.00102213956416,0.0,0.00715500162914,344,0,316.853637695,0.0461345762014
1429530556.63100004,344048,476028031,85341027,413881,5730,1,0,-4,34441,,,,,,,,,,,,,
1429530556.66199994,,,,,,,,,,344263,0.0174720529467,-0.0126311806962,-0.271904796362,0.000562219123822,-0.000888252689037,0.000498770736158,0.0,0.00552131840959,344,0,316.596191406,0.0534784346819
1429530557.19499993,,,,,,,,,,344783,0.0171534176916,-0.0121973752975,-0.27148604393,0.000210769154364,-1.3783283066e-05,0.00189506821334,0.0,0.012852113694,344,0,317.282775879,0.0621383301914
1429530557.69899988,345050,476028025,85341024,414054,5903,-1,0,-6,34445,,,,,,,,,,,,,
1429530557.70000005,,,,,,,,,,345293,0.0170167926699,-0.0122811710462,-0.271155178547,-0.000661568192299,-1.49403931573e-05,0.0020702118054,,,,,,
1429530558.03199983,,,,,,,,,,,,,,,,,0.0,0.0075068725273,344,0,317.025299072,0.066490970552
1429530558.13699985,,,,,,,,,,345803,0.0169467572123,-0.0124524012208,-0.270974814892,-0.000662720762193,0.000158138282131,-0.000373397022486,,,,,,
1429530558.46799994,,,,,,,,,,,,,,,,,0.0,0.00026545059518,344,0,316.424560547,0.064456038177
1429530558.46899986,346044,476028026,85341022,414091,5940,0,0,-6,34448,,,,,,,,,,,,,
1429530558.78299999,,,,,,,,,,346303,0.0173914656043,-0.0122768441215,-0.270823061466,0.000558843719773,-1.49922561832e-05,0.0011975178495,0.0,0.01037596073,344,0,316.081268311,0.0569974035025
1429530559.35200000,,,,,,,,,,346803,0.0179132260382,-0.0125736938789,-0.270649641752,-0.000311030307785,0.000157581875101,-2.35941261053e-05,,,,,,
1429530559.38599992,,,,,,,,,,,,,,,,,0.0,0.0243570227176,344,0,317.196929932,0.0527453348041
1429530559.41699982,347064,476028027,85341024,414136,5985,1,2,-5,34450,,,,,,,,,,,,,
1429530559.79999995,,,,,,,,,,347313,0.0176920071244,-0.0122626023367,-0.27028092742,-0.00101052806713,-0.000189887301531,-0.000372444279492,0.0,0.0264717005193,344,0,314.96572876,0.0480373688042
1429530560.20899987,,,,,,,,,,347823,0.0167716275901,-0.0118714552373,-0.270236819983,0.00107720086817,-1.39077892527e-05,0.00102266017348,,,,,,
1429530560.58699989,,,,,,,,,,,,,,,,,0.0,0.014349934645,344,0,316.767822266,0.0451380833983
1429530560.58899999,348070,476028023,85341019,414144,5993,0,1,-4,34452,,,,,,,,,,,,,
1429530560.88999987,,,,,,,,,,348323,0.0172411575913,-0.0119764236733,-0.269990354776,0.000207523902645,-0.00123535073362,-0.000547418370843,0.0,0.0231476370245,344,0,315.995452881,0.0395336300135
1429530561.43799996,,,,,,,,,,348833,0.0174103993922,-0.0127346292138,-0.270023226738,-0.000665895291604,0.000506756070536,0.000499450601637,,,,,,
1429530561.47000003,,,,,,,,,,,,,,,,,0.0,0.0190970767289,344,0,315.56640625,0.0352823548019
1429530561.49899983,349064,476028023,85341020,414116,5965,0,2,-3,34453,,,,,,,,,,,,,
1429530561.94599986,,,,,,,,,,349343,0.0176997538656,-0.0130728855729,-0.269823908806,-0.000490604899824,0.00190252694301,-0.000198398716748,0.0,0.0354437716305,344,0,316.424560547,0.0328149832785
1429530562.27900004,,,,,,,,,,349843,0.0182348806411,-0.0130062727258,-0.269783079624,0.000907854526304,-1.76360481419e-05,0.000151208601892,0.0,0.0600257702172,344,0,316.510375977,0.0288322716951
1429530562.42400002,350074,476028026,85341026,414167,6016,3,5,-3,34455,,,,,,,,,,,,,
1429530562.75999999,,,,,,,,,,350353,0.0180613268167,-0.013467637822,-0.269657582045,0.00282548135146,0.000852318655234,0.00137259159237,,,,,,
1429530562.85399985,,,,,,,,,,,,,,,,,0.0,0.0689427703619,344,0,317.025299072,0.029241586104
1429530563.32099986,,,,,,,,,,350863,0.0173721853644,-0.0137751996517,-0.269430935383,-0.0013660750119,-0.00159177999012,0.00224472489208,1.48977005482,0.0737957134843,344,0,315.823822021,0.0249526761472
1429530563.41599989,351078,476028036,85341024,414164,6013,8,3,-2,34456,,,,,,,,,,,,,
1429530564.05599999,,,,,,,,,,351373,0.018017379567,-0.0145697938278,-0.269406795502,-0.0045091798529,-2.50550219789e-05,0.000149827450514,,,,,,
1429530564.05699992,,,,,,,,,,,,,,,,,0.558041810989,0.0990781113505,344,0,316.3387146,0.02229998447
1429530564.35099983,,,,,,,,,,351873,0.0169374980032,-0.0135136255994,-0.269280225039,-0.00119888444897,-0.000192005070858,-0.000374534167349,1.01436972618,0.0570184066892,344,0,315.823822021,0.0203889403492
1429530564.45799994,352088,476028033,85341013,414227,6076,4,0,-2,34456,,,,,,,,,,,,,
1429530564.84200001,,,,,,,,,,352383,0.0169457308948,-0.0131158372387,-0.269123017788,0.000192537467228,-0.000363534374628,0.00049714744091,,,,,,
1429530565.17400002,,,,,,,,,,,,,,,,,1.40120732784,0.038812097162,344,0,316.939453125,0.0184422619641
1429530565.40699983,,,,,,,,,,352893,0.0172758288682,-0.0126828132197,-0.269056379795,-0.00381939881481,-0.000708574487362,0.00049757398665,0.754058778286,0.0286136623472,344,0,315.48059082,0.0154129313305
1429530565.40799999,353088,476028032,85341016,414281,6130,2,0,-1,34458,,,,,,,,,,,,,
1429530565.72499990,,,,,,,,,,353393,0.0177787020802,-0.0127676250413,-0.268775135279,-0.00189862120897,-0.000184063159395,0.000672244466841,,,,,,
1429530565.82099986,,,,,,,,,,,,,,,,,0.0,0.0349710993469,344,0,316.25289917,0.0121109606698
1429530566.53999996,,,,,,,,,,353893,0.0182890910655,-0.0128345983103,-0.268634945154,0.00141937332228,-0.00105640757829,0.000323548913002,1.10368537903,0.0500963255763,344,0,316.596191406,0.0118787800893
1429530566.54099989,354094,476028037,85341022,414343,6192,4,3,-1,34460,,,,,,,,,,,,,
1429530566.94599986,,,,,,,,,,354403,0.0175347216427,-0.0124859120697,-0.268498986959,1.81307259481e-05,-6.02338695899e-06,0.00171895697713,0.745054543018,0.0262339413166,344,0,316.081268311,0.0156756285578
1429530567.41100001,,,,,,,,,,354903,0.0168472919613,-0.012057418935,-0.268322348595,0.00123657681979,0.0012205200037,0.00032209046185,,,,,,
1429530567.41199994,,,,,,,,,,,,,,,,,0.0,0.0127079216763,344,0,316.081268311,0.0104062380269
